$GPGSV,4,1,16,40,61,232,40,29,57,356,39,15,56,129,46,25,44,222,37*72
$GPGSV,4,2,16,23,38,243,36,05,34,027,44,13,33,083,43,18,27,315,35*76
$GPGSV,4,3,16,12,26,177,35,02,16,069,18,10,11,230,,24,08,163,40*74
$GPGSV,4,4,16,20,05,042,,11,04,072,14,26,02,314,22,193,,,*70
$GPGLL,1529.6468,N,07356.7508,E,070443.000,A,D*56
$GPTXT,01,01,02,ANTSTATUS=OPEN*2B
$GPRMC,070444.000,A,1529.6468,N,07356.7508,E,0.00,0.00,200722,,,D*63
$GPVTG,0.00,T,,M,0.00,N,0.00,K,D*38
$GPGGA,070444.000,1529.6468,N,07356.7508,E,2,9,0.87,43.5,M,-75.3,M,,*4A
$GPGSA,A,3,05,29,23,18,25,13,15,24,12,,,,1.23,0.87,0.87*00
$GPGSV,4,1,16,40,61,232,41,29,57,356,39,15,56,129,46,25,44,222,38*7C
$GPGSV,4,2,16,23,38,243,37,05,34,027,44,13,33,083,43,18,27,315,36*74
$GPGSV,4,3,16,12,26,177,35,02,16,069,19,10,11,230,,24,08,163,40*75
$GPGSV,4,4,16,20,05,042,,11,04,072,14,26,02,314,22,193,,,*70
$GPGLL,1529.6468,N,07356.7508,E,070444.000,A,D*51
$GPTXT,01,01,02,ANTSTATUS=OPEN*2B
$GPRMC,070445.000,A,1529.6468,N,07356.7508,E,0.00,0.00,200722,,,D*62
$GPVTG,0.00,T,,M,0.00,N,0.00,K,D*38
$GPGGA,070445.000,1529.6468,N,07356.7508,E,2,9,0.87,43.6,M,-75.3,M,,*48
$GPGSA,A,3,05,29,23,18,25,13,15,24,12,,,,1.23,0.87,0.87*00
$GPGSV,4,1,16,40,61,232,41,29,57,356,38,15,56,129,46,25,44,222,38*7D
$GPGSV,4,2,16,23,38,243,37,05,34,027,44,13,33,083,43,18,27,315,36*74
$GPGSV,4,3,16,12,26,177,35,02,16,069,20,10,11,230,,24,08,163,40*7F
$GPGSV,4,4,16,20,05,042,,11,04,072,15,26,02,314,23,193,,,*70
$GPGLL,1529.6468,N,07356.7508,E,070445.000,A,D*50
$GPTXT,01,01,02,ANTSTATUS=OPEN*2B
$GPRMC,070446.000,A,1529.6468,N,07356.7508,E,0.00,0.00,200722,,,D*61
$GPVTG,0.00,T,,M,0.00,N,0.00,K,D*38
$GPGGA,070446.000,1529.6468,N,07356.7508,E,2,9,0.87,43.7,M,-75.3,M,,*4A
$GPGSA,A,3,05,29,23,18,25,13,15,24,12,,,,1.23,0.87,0.87*00
$GPGSV,4,1,16,40,61,232,41,29,57,356,38,15,56,129,46,25,44,222,38*7D
$GPGSV,4,2,16,23,38,243,38,05,34,027,44,13,33,083,43,18,27,315,36*7B
$GPGSV,4,3,16,12,26,177,35,02,16,069,21,10,11,230,,24,08,163,40*7E
$GPGSV,4,4,16,20,05,042,,11,04,072,17,26,02,314,23,193,,,*72
$GPGLL,1529.6468,N,07356.7508,E,070446.000,A,D*53
$GPTXT,01,01,02,ANTSTATUS=OPEN*2B
$GPRMC,070447.000,A,1529.6468,N,07356.7508,E,0.00,0.00,200722,,,D*60
$GPVTG,0.00,T,,M,0.00,N,0.00,K,D*38
$GPGGA,070447.000,1529.6468,N,07356.7508,E,2,9,0.87,43.8,M,-75.3,M,,*44
$GPGSA,A,3,05,29,23,18,25,13,15,24,12,,,,1.23,0.87,0.87*00
$GPGSV,4,1,16,40,61,232,41,29,57,356,38,15,56,129,46,25,44,222,39*7C
$GPGSV,4,2,16,23,38,243,37,05,34,027,44,13,33,083,43,18,27,315,36*74
$GPGSV,4,3,16,12,26,177,34,02,16,069,21,10,11,230,,24,08,163,40*7F
$GPGSV,4,4,16,20,05,042,,11,04,072,17,26,02,314,23,193,,,*72
$GPGLL,1529.6468,N,07356.7508,E,070447.000,A,D*52
$GPTXT,01,01,02,ANTSTATUS=OPEN*2B
$GPRMC,070448.000,A,1529.6468,N,07356.7508,E,0.00,0.00,200722,,,D*6F
$GPVTG,0.00,T,,M,0.00,N,0.00,K,D*38
$GPGGA,070448.000,1529.6468,N,07356.7508,E,2,9,0.87,43.8,M,-75.3,M,,*4B
$GPGSA,A,3,05,29,23,18,25,13,15,24,12,,,,1.23,0.87,0.87*00
$GPGSV,4,1,16,40,61,232,42,29,57,356,38,15,56,129,46,25,44,222,39*7F
$GPGSV,4,2,16,23,38,243,37,05,34,027,44,13,33,083,44,18,27,315,37*72
$GPGSV,4,3,16,12,26,177,35,02,16,069,22,10,11,230,,24,08,163,40*7D
$GPGSV,4,4,16,20,05,042,,11,04,072,16,26,02,314,22,193,,,*72
$GPGLL,1529.6468,N,07356.7508,E,070448.000,A,D*5D
$GPTXT,01,01,02,ANTSTATUS=OPEN*2B
$GPRMC,070449.000,A,1529.6468,N,07356.7508,E,0.00,0.00,200722,,,D*6E
$GPVTG,0.00,T,,M,0.00,N,0.00,K,D*38
$GPGGA,070449.000,1529.6468,N,07356.7508,E,2,9,0.87,43.9,M,-75.3,M,,*4B
$GPGSA,A,3,05,29,23,18,25,13,15,24,12,,,,1.23,0.87,0.87*00
$GPGSV,4,1,16,40,61,232,42,29,57,356,38,15,56,129,46,25,44,222,39*7F
$GPGSV,4,2,16,23,38,243,37,05,34,027,44,13,33,083,44,18,27,315,37*72
$GPGSV,4,3,16,12,26,177,35,02,16,069,23,10,11,230,,24,08,163,40*7C
$GPGSV,4,4,16,20,05,042,,11,04,072,16,26,02,314,21,193,,,*71
$GPGLL,1529.6468,N,07356.7508,E,070449.000,A,D*5C
$GPTXT,01,01,02,ANTSTATUS=OPEN*2B
$GPRMC,070450.000,A,1529.6468,N,07356.7508,E,0.00,0.00,200722,,,D*66
$GPVTG,0.00,T,,M,0.00,N,0.00,K,D*38
$GPGGA,070450.000,1529.6468,N,07356.7508,E,2,9,0.87,44.0,M,-75.3,M,,*4D
$GPGSA,A,3,05,29,23,18,25,13,15,24,12,,,,1.23,0.87,0.87*00
$GPGSV,4,1,16,40,61,232,42,29,57,356,38,15,56,129,46,25,44,222,38*7E
$GPGSV,4,2,16,23,38,243,37,05,34,027,44,13,33,083,44,18,27,315,37*72
$GPGSV,4,3,16,12,26,177,35,02,16,069,24,10,11,230,,24,08,163,40*7B
$GPGSV,4,4,16,20,05,042,,11,04,072,15,26,02,314,21,193,,,*72
$GPGLL,1529.6468,N,07356.7508,E,070450.000,A,D*54
$GPTXT,01,01,02,ANTSTATUS=OPEN*2B
$GPRMC,070451.000,A,1529.6468,N,07356.7508,E,0.00,0.00,200722,,,D*67
$GPVTG,0.00,T,,M,0.00,N,0.00,K,D*38
$GPGGA,070451.000,1529.6468,N,07356.7508,E,2,9,0.87,44.1,M,-75.3,M,,*4D
$GPGSA,A,3,05,29,23,18,25,13,15,24,12,,,,1.23,0.87,0.87*00
$GPGSV,4,1,16,40,61,232,42,29,57,356,38,15,56,129,46,25,44,222,38*7E
$GPGSV,4,2,16,23,38,243,37,05,34,027,44,13,33,083,44,18,27,315,36*73
$GPGSV,4,3,16,12,26,177,35,02,16,069,24,10,11,230,,24,08,163,40*7B
$GPGSV,4,4,16,20,05,042,,11,04,072,15,26,02,314,20,193,,,*73
$GPGLL,1529.6468,N,07356.7508,E,070451.000,A,D*55
$GPTXT,01,01,02,ANTSTATUS=OPEN*2B
$GPRMC,070452.000,A,1529.6468,N,07356.7508,E,0.00,0.00,200722,,,D*64
$GPVTG,0.00,T,,M,0.00,N,0.00,K,D*38
$GPGGA,070452.000,1529.6468,N,07356.7508,E,2,9,0.87,44.1,M,-75.3,M,,*4E
$GPGSA,A,3,05,29,23,18,25,13,15,24,12,,,,1.23,0.87,0.87*00
$GPGSV,4,1,16,40,61,232,42,29,57,356,39,15,56,129,46,25,44,222,38*7F
$GPGSV,4,2,16,23,38,243,37,05,34,027,44,13,33,083,44,18,27,315,36*73
$GPGSV,4,3,16,12,26,177,35,02,16,069,25,10,11,230,,24,08,163,40*7A
$GPGSV,4,4,16,20,05,042,,11,04,072,15,26,02,314,19,193,,,*79
$GPGLL,1529.6468,N,07356.7508,E,070452.000,A,D*56
$GPTXT,01,01,02,ANTSTATUS=OPEN*2B
$GPRMC,070453.000,A,1529.6468,N,07356.7508,E,0.00,0.00,200722,,,D*65
$GPVTG,0.00,T,,M,0.00,N,0.00,K,D*38
$GPGGA,070453.000,1529.6468,N,07356.7508,E,2,9,0.87,44.2,M,-75.3,M,,*4C
$GPGSA,A,3,05,29,23,18,25,13,15,24,12,,,,1.23,0.87,0.87*00
$GPGSV,4,1,16,40,61,232,42,29,57,356,39,15,56,129,46,25,44,222,38*7F
$GPGSV,4,2,16,23,38,243,37,05,34,027,44,13,33,083,44,18,27,315,35*70
$GPGSV,4,3,16,12,26,177,35,02,16,069,24,10,11,230,,24,08,163,40*7B
$GPGSV,4,4,16,20,05,042,,11,04,072,15,26,02,314,18,193,,,*78
$GPGLL,1529.6468,N,07356.7508,E,070453.000,A,D*57
$GPTXT,01,01,02,ANTSTATUS=OPEN*2B
$GPRMC,070454.000,A,1529.6468,N,07356.7508,E,0.00,0.00,200722,,,D*62
$GPVTG,0.00,T,,M,0.00,N,0.00,K,D*38
$GPGGA,070454.000,1529.6468,N,07356.7508,E,2,9,0.87,44.3,M,-75.3,M,,*4A
$GPGSA,A,3,05,29,23,18,25,13,15,24,12,,,,1.23,0.87,0.87*00
$GPGSV,4,1,16,40,61,232,42,29,57,356,39,15,56,129,46,25,44,222,38*7F
$GPGSV,4,2,16,23,38,243,37,05,34,027,44,13,33,083,44,18,27,315,34*71
$GPGSV,4,3,16,12,26,177,35,02,16,069,23,10,11,230,,24,08,163,40*7C
$GPGSV,4,4,16,20,05,042,,11,04,072,14,26,02,314,18,193,,,*79
$GPGLL,1529.6468,N,07356.7508,E,070454.000,A,D*50
$GPTXT,01,01,02,ANTSTATUS=OPEN*2B
$GPRMC,070455.000,A,1529.6468,N,07356.7508,E,0.00,0.00,200722,,,D*63
$GPVTG,0.00,T,,M,0.00,N,0.00,K,D*38
$GPGGA,070455.000,1529.6468,N,07356.7508,E,2,9,0.87,44.4,M,-75.3,M,,*4C
$GPGSA,A,3,05,29,23,18,25,13,15,24,12,,,,1.23,0.87,0.87*00
$GPGSV,4,1,16,40,61,232,42,29,57,356,39,15,56,129,46,25,44,222,38*7F
$GPGSV,4,2,16,23,38,243,37,05,34,027,44,13,33,083,44,18,27,315,34*71
$GPGSV,4,3,16,12,26,177,35,02,16,069,23,10,11,230,,24,08,163,40*7C
$GPGSV,4,4,16,20,05,042,,11,04,072,13,26,02,314,19,193,,,*7F
$GPGLL,1529.6468,N,07356.7508,E,070455.000,A,D*51
$GPTXT,01,01,02,ANTSTATUS=OPEN*2B
$GPRMC,070456.000,A,1529.6468,N,07356.7508,E,0.00,0.00,200722,,,D*60
$GPVTG,0.00,T,,M,0.00,N,0.00,K,D*38
$GPGGA,070456.000,1529.6468,N,07356.7508,E,2,9,0.87,44.4,M,-75.3,M,,*4F
$GPGSA,A,3,05,29,23,18,25,13,15,24,12,,,,1.23,0.87,0.87*00
$GPGSV,4,1,16,40,61,232,42,29,57,356,39,15,56,129,46,25,44,222,38*7F
$GPGSV,4,2,16,23,38,243,37,05,34,027,44,13,33,083,44,18,27,315,34*71
$GPGSV,4,3,16,12,26,177,36,02,16,069,23,10,11,230,,24,08,163,40*7F
$GPGSV,4,4,16,20,05,042,,11,04,073,13,26,02,314,19,193,,,*7E
$GPGLL,1529.6468,N,07356.7508,E,070456.000,A,D*52
$GPTXT,01,01,02,ANTSTATUS=OPEN*2B
$GPRMC,070457.000,A,1529.6468,N,07356.7508,E,0.00,0.00,200722,,,D*61
$GPVTG,0.00,T,,M,0.00,N,0.00,K,D*38
$GPGGA,070457.000,1529.6468,N,07356.7508,E,2,9,0.87,44.5,M,-75.3,M,,*4F
$GPGSA,A,3,05,29,23,18,25,13,15,24,12,,,,1.23,0.87,0.87*00
$GPGSV,4,1,16,40,61,232,42,29,57,356,39,15,56,129,46,25,44,222,38*7F
$GPGSV,4,2,16,23,38,243,38,05,34,027,45,13,33,083,44,18,27,315,34*7F
$GPGSV,4,3,16,12,26,177,36,02,16,069,22,10,11,230,,24,08,163,40*7E
$GPGSV,4,4,16,20,05,042,,11,04,073,13,26,02,314,19,193,,,*7E
$GPGLL,1529.6468,N,07356.7508,E,070457.000,A,D*53
$GPTXT,01,01,02,ANTSTATUS=OPEN*2B
$GPRMC,070458.000,A,1529.6468,N,07356.7508,E,0.00,0.00,200722,,,D*6E
$GPVTG,0.00,T,,M,0.00,N,0.00,K,D*38
$GPGGA,070458.000,1529.6468,N,07356.7508,E,2,9,0.87,44.6,M,-75.3,M,,*43
$GPGSA,A,3,05,29,23,18,25,13,15,24,12,,,,1.23,0.87,0.87*00
$GPGSV,4,1,16,40,61,232,41,29,57,356,39,15,56,129,46,25,44,222,38*7C
$GPGSV,4,2,16,23,38,243,38,05,34,027,45,13,33,083,44,18,27,315,35*7E
$GPGSV,4,3,16,12,26,177,36,02,16,069,22,10,11,230,,24,08,163,40*7E
$GPGSV,4,4,16,20,05,042,,11,04,073,13,26,02,314,18,193,,,*7F
$GPGLL,1529.6468,N,07356.7508,E,070458.000,A,D*5C
$GPTXT,01,01,02,ANTSTATUS=OPEN*2B
$GPRMC,070459.000,A,1529.6468,N,07356.7508,E,0.00,0.00,200722,,,D*6F
$GPVTG,0.00,T,,M,0.00,N,0.00,K,D*38
$GPGGA,070459.000,1529.6468,N,07356.7508,E,2,9,0.87,44.6,M,-75.3,M,,*42
$GPGSA,A,3,05,29,23,18,25,13,15,24,12,,,,1.23,0.87,0.87*00
$GPGSV,4,1,16,40,61,232,41,29,57,356,39,15,56,129,46,25,44,222,38*7C
$GPGSV,4,2,16,23,38,243,37,05,34,027,45,13,33,083,44,18,27,315,35*71
$GPGSV,4,3,16,12,26,177,36,02,16,069,21,10,11,230,,24,08,163,40*7D
$GPGSV,4,4,16,20,05,042,,11,04,073,13,26,02,314,18,193,,,*7F
$GPGLL,1529.6468,N,07356.7508,E,070459.000,A,D*5D
$GPTXT,01,01,02,ANTSTATUS=OPEN*2B
$GPRMC,070500.000,A,1529.6468,N,07356.7508,E,0.00,0.00,200722,,,D*62
$GPVTG,0.00,T,,M,0.00,N,0.00,K,D*38
$GPGGA,070500.000,1529.6468,N,07356.7508,E,2,9,0.87,44.7,M,-75.3,M,,*4E
$GPGSA,A,3,05,29,23,18,25,13,15,24,12,,,,1.23,0.87,0.87*00
$GPGSV,4,1,16,40,61,232,42,29,57,356,39,15,56,128,46,25,44,222,38*7E
$GPGSV,4,2,16,23,38,243,38,05,34,027,44,13,33,083,44,18,27,315,35*7F
$GPGSV,4,3,16,12,26,177,36,02,16,069,20,10,11,230,,24,08,163,40*7C
$GPGSV,4,4,16,20,05,042,,11,04,073,14,26,02,314,18,193,,,*78
$GPGLL,1529.6468,N,07356.7508,E,070500.000,A,D*50
$GPTXT,01,01,02,ANTSTATUS=OPEN*2B
$GPRMC,070501.000,A,1529.6468,N,07356.7508,E,0.00,0.00,200722,,,D*63
$GPVTG,0.00,T,,M,0.00,N,0.00,K,D*38
$GPGGA,070501.000,1529.6468,N,07356.7508,E,2,9,0.87,44.8,M,-75.3,M,,*40
$GPGSA,A,3,05,29,23,18,25,13,15,24,12,,,,1.23,0.87,0.87*00
$GPGSV,4,1,16,40,61,232,42,29,57,356,40,15,56,128,46,25,44,222,38*70
$GPGSV,4,2,16,23,38,243,38,05,34,027,44,13,33,083,44,18,27,315,36*7C
$GPGSV,4,3,16,12,26,177,36,02,16,069,19,10,11,230,,24,08,163,40*76
$GPGSV,4,4,16,20,05,042,,11,04,073,14,26,02,314,17,193,,,*77
$GPGLL,1529.6468,N,07356.7508,E,070501.000,A,D*51
$GPTXT,01,01,02,ANTSTATUS=OPEN*2B
$GPRMC,070502.000,A,1529.6468,N,07356.7508,E,0.00,0.00,200722,,,D*60
$GPVTG,0.00,T,,M,0.00,N,0.00,K,D*38
$GPGGA,070502.000,1529.6468,N,07356.7508,E,2,9,0.87,44.9,M,-75.3,M,,*42
$GPGSA,A,3,05,29,23,18,25,13,15,24,12,,,,1.23,0.87,0.87*00
$GPGSV,4,1,16,40,61,232,42,29,57,356,40,15,56,128,46,25,44,222,38*70
$GPGSV,4,2,16,23,38,243,38,05,34,027,44,13,33,083,44,18,27,315,36*7C
$GPGSV,4,3,16,12,26,177,37,02,16,069,20,10,11,230,,24,08,163,39*73
$GPGSV,4,4,16,20,05,042,,11,04,073,15,26,02,314,16,193,,,*77
$GPGLL,1529.6468,N,07356.7508,E,070502.000,A,D*52
$GPTXT,01,01,02,ANTSTATUS=OPEN*2B
$GPRMC,070503.000,A,1529.6468,N,07356.7508,E,0.00,0.00,200722,,,D*61
$GPVTG,0.00,T,,M,0.00,N,0.00,K,D*38
$GPGGA,070503.000,1529.6468,N,07356.7508,E,2,9,0.87,44.9,M,-75.3,M,,*43
$GPGSA,A,3,05,29,23,18,25,13,15,24,12,,,,1.23,0.87,0.87*00
$GPGSV,4,1,16,40,61,232,42,29,57,356,40,15,56,128,46,25,44,222,38*70
$GPGSV,4,2,16,23,38,243,38,05,34,027,44,13,33,083,44,18,28,315,36*73
$GPGSV,4,3,16,12,26,177,37,02,16,069,20,10,11,230,,24,08,163,39*73
$GPGSV,4,4,16,20,05,042,,11,04,073,15,26,02,314,16,193,,,*77
$GPGLL,1529.6468,N,07356.7508,E,070503.000,A,D*53
$GPTXT,01,01,02,ANTSTATUS=OPEN*2B
$GPRMC,070504.000,A,1529.6468,N,07356.7508,E,0.00,0.00,200722,,,D*66
$GPVTG,0.00,T,,M,0.00,N,0.00,K,D*38
$GPGGA,070504.000,1529.6468,N,07356.7508,E,2,9,0.87,45.0,M,-75.3,M,,*4C
$GPGSA,A,3,05,29,23,18,25,13,15,24,12,,,,1.23,0.87,0.87*00
$GPGSV,4,1,16,40,61,232,41,29,57,356,40,15,56,128,45,25,44,222,38*70
$GPGSV,4,2,16,23,38,243,39,05,34,027,44,13,33,083,44,18,28,315,36*72
$GPGSV,4,3,16,12,26,177,37,02,16,069,20,10,11,230,,24,08,163,39*73
$GPGSV,4,4,16,20,05,042,,11,04,073,15,26,02,314,16,193,,,*77
$GPGLL,1529.6468,N,07356.7508,E,070504.000,A,D*54
$GPTXT,01,01,02,ANTSTATUS=OPEN*2B
$GPRMC,070505.000,A,1529.6468,N,07356.7508,E,0.00,0.00,200722,,,D*67
$GPVTG,0.00,T,,M,0.00,N,0.00,K,D*38
$GPGGA,070505.000,1529.6468,N,07356.7508,E,2,9,0.87,45.1,M,-75.3,M,,*4C
$GPGSA,A,3,05,29,23,18,25,13,15,24,12,,,,1.23,0.87,0.87*00
$GPGSV,4,1,16,40,61,232,42,29,57,356,40,15,56,128,46,25,44,222,38*70
$GPGSV,4,2,16,23,38,243,39,05,34,027,44,13,33,083,44,18,28,315,36*72
$GPGSV,4,3,16,12,26,177,37,02,16,069,20,10,11,230,,24,08,163,39*73
$GPGSV,4,4,16,20,05,042,,11,04,073,16,26,02,314,16,193,,,*74
$GPGLL,1529.6468,N,07356.7508,E,070505.000,A,D*55
$GPTXT,01,01,02,ANTSTATUS=OPEN*2B
$GPRMC,070506.000,A,1529.6468,N,07356.7508,E,0.00,0.00,200722,,,D*64
$GPVTG,0.00,T,,M,0.00,N,0.00,K,D*38
$GPGGA,070506.000,1529.6468,N,07356.7508,E,2,9,0.87,45.1,M,-75.3,M,,*4F
$GPGSA,A,3,05,29,23,18,25,13,15,24,12,,,,1.23,0.87,0.87*00
$GPGSV,4,1,16,40,61,232,43,29,57,356,40,15,56,128,46,25,44,222,38*71
$GPGSV,4,2,16,23,38,243,39,05,34,027,44,13,33,083,44,18,28,315,37*73
$GPGSV,4,3,16,12,26,177,37,02,16,069,20,10,11,230,,24,08,163,39*73
$GPGSV,4,4,16,20,05,042,,11,04,073,16,26,02,314,16,193,,,*74
$GPGLL,1529.6468,N,07356.7508,E,070506.000,A,D*56
$GPTXT,01,01,02,ANTSTATUS=OPEN*2B
$GPRMC,070507.000,A,1529.6468,N,07356.7508,E,0.00,0.00,200722,,,D*65
$GPVTG,0.00,T,,M,0.00,N,0.00,K,D*38
$GPGGA,070507.000,1529.6468,N,07356.7508,E,2,9,0.87,45.2,M,-75.3,M,,*4D
$GPGSA,A,3,05,29,23,18,25,13,15,24,12,,,,1.23,0.87,0.87*00
$GPGSV,4,1,16,40,61,232,42,29,57,356,40,15,56,128,46,25,44,222,37*7F
$GPGSV,4,2,16,23,38,243,39,05,34,027,44,13,33,083,44,18,28,315,37*73
$GPGSV,4,3,16,12,26,177,36,02,16,069,20,10,11,230,,24,08,163,39*72
$GPGSV,4,4,16,20,05,042,,11,04,073,15,26,02,314,16,193,,,*77
$GPGLL,1529.6468,N,07356.7508,E,070507.000,A,D*57
$GPTXT,01,01,02,ANTSTATUS=OPEN*2B
$GPRMC,070508.000,A,1529.6468,N,07356.7508,E,0.00,0.00,200722,,,D*6A
$GPVTG,0.00,T,,M,0.00,N,0.00,K,D*38
$GPGGA,070508.000,1529.6468,N,07356.7508,E,2,9,0.87,45.3,M,-75.3,M,,*43
$GPGSA,A,3,05,29,23,18,25,13,15,24,12,,,,1.23,0.87,0.87*00
$GPGSV,4,1,16,40,61,232,41,29,57,356,40,15,56,128,46,25,44,222,37*7C
$GPGSV,4,2,16,23,38,244,39,05,34,027,44,13,33,083,43,18,28,315,37*73
$GPGSV,4,3,16,12,26,177,36,02,16,069,19,10,11,230,,24,08,163,39*78
$GPGSV,4,4,16,20,05,042,,11,04,073,16,26,02,314,16,193,,,*74
$GPGLL,1529.6468,N,07356.7508,E,070508.000,A,D*58
$GPTXT,01,01,02,ANTSTATUS=OPEN*2B
$GPRMC,070509.000,A,1529.6468,N,07356.7508,E,0.00,0.00,200722,,,D*6B
$GPVTG,0.00,T,,M,0.00,N,0.00,K,D*38
$GPGGA,070509.000,1529.6468,N,07356.7508,E,2,9,0.87,45.4,M,-75.3,M,,*45
$GPGSA,A,3,05,29,23,18,25,13,15,24,12,,,,1.23,0.87,0.87*00
$GPGSV,4,1,16,40,61,232,41,29,57,356,40,15,56,128,45,25,44,222,37*7F
$GPGSV,4,2,16,23,38,244,38,05,34,027,44,13,33,083,43,18,28,315,37*72
$GPGSV,4,3,16,12,26,177,36,02,16,069,19,10,11,230,,24,08,163,39*78
$GPGSV,4,4,16,20,05,042,,11,04,073,16,26,02,314,16,193,,,*74
$GPGLL,1529.6468,N,07356.7508,E,070509.000,A,D*59
$GPTXT,01,01,02,ANTSTATUS=OPEN*2B
$GPRMC,070510.000,A,1529.6468,N,07356.7508,E,0.00,0.00,200722,,,D*63
$GPVTG,0.00,T,,M,0.00,N,0.00,K,D*38
$GPGGA,070510.000,1529.6468,N,07356.7508,E,2,9,0.87,45.4,M,-75.3,M,,*4D
$GPGSA,A,3,05,29,23,18,25,13,15,24,12,,,,1.23,0.87,0.87*00
$GPGSV,4,1,16,40,61,232,42,29,57,356,40,15,56,128,45,25,44,222,38*73
$GPGSV,4,2,16,23,38,244,38,05,34,027,44,13,33,083,43,18,28,315,37*72
$GPGSV,4,3,16,12,26,177,37,02,16,069,20,10,11,230,,24,08,163,39*73
$GPGSV,4,4,16,20,05,042,,11,04,073,16,26,02,314,16,193,,,*74
$GPGLL,1529.6468,N,07356.7508,E,070510.000,A,D*51
$GPTXT,01,01,02,ANTSTATUS=OPEN*2B
$GPRMC,070511.000,A,1529.6468,N,07356.7508,E,0.00,0.00,200722,,,D*62
$GPVTG,0.00,T,,M,0.00,N,0.00,K,D*38
$GPGGA,070511.000,1529.6468,N,07356.7508,E,2,9,0.87,45.5,M,-75.3,M,,*4D
$GPGSA,A,3,05,29,23,18,25,13,15,24,12,,,,1.23,0.87,0.87*00
$GPGSV,4,1,16,40,61,232,42,29,57,356,40,15,56,128,45,25,44,222,38*73
$GPGSV,4,2,16,23,38,244,37,05,34,027,44,13,33,083,43,18,28,315,37*7D
$GPGSV,4,3,16,12,26,177,36,02,16,069,20,10,11,230,,24,08,163,39*72
$GPGSV,4,4,16,20,05,042,,11,04,073,16,26,02,313,16,193,,,*73
$GPGLL,1529.6468,N,07356.7508,E,070511.000,A,D*50
$GPTXT,01,01,02,ANTSTATUS=OPEN*2B
$GPRMC,070512.000,A,1529.6468,N,07356.7508,E,0.00,0.00,200722,,,D*61
$GPVTG,0.00,T,,M,0.00,N,0.00,K,D*38
$GPGGA,070512.000,1529.6468,N,07356.7508,E,2,9,0.87,45.5,M,-75.3,M,,*4E
$GPGSA,A,3,05,29,23,18,25,13,15,24,12,,,,1.23,0.87,0.87*00
$GPGSV,4,1,16,40,61,232,41,29,57,356,39,15,56,128,45,25,44,222,38*7E
$GPGSV,4,2,16,23,38,244,36,05,34,027,44,13,33,083,43,18,28,315,37*7C
$GPGSV,4,3,16,12,26,177,36,02,16,069,21,10,11,230,,24,08,163,39*73
$GPGSV,4,4,16,20,05,042,,11,04,073,16,26,02,313,16,193,,,*73
$GPGLL,1529.6468,N,07356.7508,E,070512.000,A,D*53
$GPTXT,01,01,02,ANTSTATUS=OPEN*2B
$GPRMC,070513.000,A,1529.6468,N,07356.7508,E,0.00,0.00,200722,,,D*60
$GPVTG,0.00,T,,M,0.00,N,0.00,K,D*38
$GPGGA,070513.000,1529.6468,N,07356.7508,E,2,9,0.87,45.6,M,-75.3,M,,*4C
$GPGSA,A,3,05,29,23,18,25,13,15,24,12,,,,1.23,0.87,0.87*00
$GPGSV,4,1,16,40,61,232,41,29,57,356,38,15,56,128,45,25,44,222,38*7F
$GPGSV,4,2,16,23,38,244,36,05,34,027,44,13,33,083,44,18,28,315,36*7A
$GPGSV,4,3,16,12,26,177,36,02,16,069,21,10,11,230,,24,08,163,39*73
$GPGSV,4,4,16,20,05,042,,11,04,073,16,26,02,313,17,193,,,*72
$GPGLL,1529.6468,N,07356.7508,E,070513.000,A,D*52
$GPTXT,01,01,02,ANTSTATUS=OPEN*2B
$GPRMC,070514.000,A,1529.6468,N,07356.7508,E,0.00,0.00,200722,,,D*67
$GPVTG,0.00,T,,M,0.00,N,0.00,K,D*38
$GPGGA,070514.000,1529.6468,N,07356.7508,E,2,9,0.87,45.7,M,-75.3,M,,*4A
$GPGSA,A,3,05,29,23,18,25,13,15,24,12,,,,1.23,0.87,0.87*00
$GPGSV,4,1,16,40,61,232,41,29,57,356,38,15,56,128,46,25,44,222,38*7C
$GPGSV,4,2,16,23,38,244,36,05,34,027,44,13,33,083,45,18,28,315,37*7A
$GPGSV,4,3,16,12,26,177,36,02,16,069,22,10,11,230,,24,08,163,40*7E
$GPGSV,4,4,16,20,05,042,,11,04,073,16,26,02,313,17,193,,,*72
$GPGLL,1529.6468,N,07356.7508,E,070514.000,A,D*55
$GPTXT,01,01,02,ANTSTATUS=OPEN*2B
$GPRMC,070515.000,A,1529.6468,N,07356.7508,E,0.00,0.00,200722,,,D*66
$GPVTG,0.00,T,,M,0.00,N,0.00,K,D*38
$GPGGA,070515.000,1529.6468,N,07356.7508,E,2,9,0.87,45.7,M,-75.3,M,,*4B
$GPGSA,A,3,05,29,23,18,25,13,15,24,12,,,,1.23,0.87,0.87*00
$GPGSV,4,1,16,40,61,232,41,29,57,356,39,15,56,128,46,25,44,222,38*7D
$GPGSV,4,2,16,23,38,244,36,05,34,027,44,13,33,083,45,18,28,315,37*7A
$GPGSV,4,3,16,12,26,177,36,02,16,069,22,10,11,230,,24,08,163,40*7E
$GPGSV,4,4,16,20,05,042,,11,04,073,16,26,02,313,17,193,,,*72
$GPGLL,1529.6468,N,07356.7508,E,070515.000,A,D*54
$GPTXT,01,01,02,ANTSTATUS=OPEN*2B
$GPRMC,070516.000,A,1529.6468,N,07356.7508,E,0.00,0.00,200722,,,D*65
$GPVTG,0.00,T,,M,0.00,N,0.00,K,D*38
$GPGGA,070516.000,1529.6468,N,07356.7508,E,2,9,0.87,45.8,M,-75.3,M,,*47
$GPGSA,A,3,05,29,23,18,25,13,15,24,12,,,,1.23,0.87,0.87*00
$GPGSV,4,1,16,40,61,232,41,29,57,356,39,15,56,128,46,25,44,222,38*7D
$GPGSV,4,2,16,23,38,244,36,05,34,027,44,13,33,083,44,18,28,315,36*7A
$GPGSV,4,3,16,12,26,177,35,02,16,069,20,10,11,230,,24,08,163,40*7F
$GPGSV,4,4,16,20,05,042,,11,04,073,16,26,02,313,16,193,,,*73
$GPGLL,1529.6468,N,07356.7508,E,070516.000,A,D*57
$GPTXT,01,01,02,ANTSTATUS=OPEN*2B
$GPRMC,070517.000,A,1529.6468,N,07356.7508,E,0.00,0.00,200722,,,D*64
$GPVTG,0.00,T,,M,0.00,N,0.00,K,D*38
$GPGGA,070517.000,1529.6468,N,07356.7508,E,2,9,0.87,45.9,M,-75.3,M,,*47
$GPGSA,A,3,05,29,23,18,25,13,15,24,12,,,,1.23,0.87,0.87*00
$GPGSV,4,1,16,40,61,232,41,29,57,356,39,15,56,128,46,25,44,222,38*7D
$GPGSV,4,2,16,23,38,244,36,05,34,027,44,13,33,083,44,18,28,315,37*7B
$GPGSV,4,3,16,12,26,177,35,02,16,069,19,10,11,230,,24,08,163,40*75
$GPGSV,4,4,16,20,05,042,,11,04,073,16,26,02,313,16,193,,,*73
$GPGLL,1529.6468,N,07356.7508,E,070517.000,A,D*56
$GPTXT,01,01,02,ANTSTATUS=OPEN*2B
$GPRMC,070518.000,A,1529.6468,N,07356.7508,E,0.00,0.00,200722,,,D*6B
$GPVTG,0.00,T,,M,0.00,N,0.00,K,D*38
$GPGGA,070518.000,1529.6468,N,07356.7508,E,2,9,0.87,45.9,M,-75.3,M,,*48
$GPGSA,A,3,05,29,23,18,25,13,15,24,12,,,,1.23,0.87,0.87*00
$GPGSV,4,1,16,40,61,232,40,29,57,356,39,15,56,128,46,25,44,222,38*7C
$GPGSV,4,2,16,23,38,244,37,05,34,027,44,13,33,083,44,18,28,315,37*7A
$GPGSV,4,3,16,12,26,177,35,02,16,069,18,10,11,230,,24,08,163,40*74
$GPGSV,4,4,16,20,05,042,,11,04,073,15,26,02,313,16,193,,,*70
$GPGLL,1529.6468,N,07356.7508,E,070518.000,A,D*59
$GPTXT,01,01,02,ANTSTATUS=OPEN*2B
$GPRMC,070519.000,A,1529.6468,N,07356.7508,E,0.00,0.00,200722,,,D*6A
$GPVTG,0.00,T,,M,0.00,N,0.00,K,D*38
$GPGGA,070519.000,1529.6468,N,07356.7508,E,2,9,0.87,46.0,M,-75.3,M,,*43
$GPGSA,A,3,05,29,23,18,25,13,15,24,12,,,,1.23,0.87,0.87*00
$GPGSV,4,1,16,40,61,232,41,29,57,356,39,15,56,128,46,25,44,222,38*7D
$GPGSV,4,2,16,23,38,244,38,05,34,027,44,13,33,083,44,18,28,315,37*75
$GPGSV,4,3,16,12,26,177,36,02,16,069,18,10,11,230,,24,08,163,40*77
$GPGSV,4,4,16,20,05,042,,11,04,073,15,26,02,313,16,193,,,*70
$GPGLL,1529.6468,N,07356.7508,E,070519.000,A,D*58
$GPTXT,01,01,02,ANTSTATUS=OPEN*2B
$GPRMC,070520.000,A,1529.6468,N,07356.7508,E,0.00,0.00,200722,,,D*60
$GPVTG,0.00,T,,M,0.00,N,0.00,K,D*38
$GPGGA,070520.000,1529.6468,N,07356.7508,E,2,9,0.87,46.1,M,-75.3,M,,*48
$GPGSA,A,3,05,29,23,18,25,13,15,24,12,,,,1.23,0.87,0.87*00
$GPGSV,4,1,16,40,61,232,41,29,57,356,39,15,56,128,45,25,44,222,38*7E
$GPGSV,4,2,16,23,38,244,38,05,34,027,43,13,33,083,44,18,28,315,37*72
$GPGSV,4,3,16,12,26,177,36,02,16,069,17,10,11,230,,24,08,163,39*76
$GPGSV,4,4,16,20,05,042,,11,04,073,15,26,02,313,16,193,,,*70
$GPGLL,1529.6468,N,07356.7508,E,070520.000,A,D*52
$GPTXT,01,01,02,ANTSTATUS=OPEN*2B
$GPRMC,070521.000,A,1529.6468,N,07356.7508,E,0.00,0.00,200722,,,D*61
$GPVTG,0.00,T,,M,0.00,N,0.00,K,D*38
$GPGGA,070521.000,1529.6468,N,07356.7508,E,2,9,0.87,46.1,M,-75.3,M,,*49
$GPGSA,A,3,05,29,23,18,25,13,15,24,12,,,,1.23,0.87,0.87*00
$GPGSV,4,1,16,40,61,232,41,29,57,356,39,15,56,128,45,25,44,222,38*7E
$GPGSV,4,2,16,23,38,244,37,05,34,027,43,13,33,083,44,18,28,315,37*7D
$GPGSV,4,3,16,12,26,177,36,02,16,069,17,10,11,230,,24,08,163,39*76
$GPGSV,4,4,16,20,05,042,,11,04,073,14,26,02,313,16,193,,,*71
$GPGLL,1529.6468,N,07356.7508,E,070521.000,A,D*53
$GPTXT,01,01,02,ANTSTATUS=OPEN*2B
$GPRMC,070522.000,A,1529.6468,N,07356.7508,E,0.00,0.00,200722,,,D*62
$GPVTG,0.00,T,,M,0.00,N,0.00,K,D*38
$GPGGA,070522.000,1529.6468,N,07356.7508,E,2,9,0.87,46.2,M,-75.3,M,,*49
$GPGSA,A,3,05,29,23,18,25,13,15,24,12,,,,1.23,0.87,0.87*00
$GPGSV,4,1,16,40,61,232,41,29,57,356,39,15,56,128,45,25,44,222,38*7E
$GPGSV,4,2,16,23,38,244,37,05,34,027,43,13,33,083,44,18,28,315,37*7D
$GPGSV,4,3,16,12,26,177,35,02,16,069,17,10,11,230,,24,08,163,39*75
$GPGSV,4,4,16,20,05,042,,11,04,073,14,26,02,313,16,193,,,*71
$GPGLL,1529.6468,N,07356.7508,E,070522.000,A,D*50
$GPTXT,01,01,02,ANTSTATUS=OPEN*2B
$GPRMC,070523.000,A,1529.6468,N,07356.7508,E,0.00,0.00,200722,,,D*63
$GPVTG,0.00,T,,M,0.00,N,0.00,K,D*38
$GPGGA,070523.000,1529.6468,N,07356.7508,E,2,9,0.87,46.2,M,-75.3,M,,*48
$GPGSA,A,3,05,29,23,18,25,13,15,24,12,,,,1.23,0.87,0.87*00
$GPGSV,4,1,16,40,61,232,41,29,57,356,39,15,56,128,46,25,44,222,38*7D
$GPGSV,4,2,16,23,38,244,37,05,34,027,43,13,33,083,44,18,28,315,37*7D
$GPGSV,4,3,16,12,26,177,35,02,16,070,18,10,11,230,,24,08,163,39*72
$GPGSV,4,4,16,20,05,042,,11,04,073,15,26,02,313,16,193,,,*70
$GPGLL,1529.6468,N,07356.7508,E,070523.000,A,D*51
$GPTXT,01,01,02,ANTSTATUS=OPEN*2B
$GPRMC,070524.000,A,1529.6468,N,07356.7508,E,0.00,0.00,200722,,,D*64
$GPVTG,0.00,T,,M,0.00,N,0.00,K,D*38
$GPGGA,070524.000,1529.6468,N,07356.7508,E,2,9,0.87,46.3,M,-75.3,M,,*4E
$GPGSA,A,3,05,29,23,18,25,13,15,24,12,,,,1.23,0.87,0.87*00
$GPGSV,4,1,16,40,61,232,41,29,57,356,39,15,56,128,46,25,44,222,38*7D
$GPGSV,4,2,16,23,38,244,37,05,34,027,43,13,33,083,44,18,28,315,36*7C
$GPGSV,4,3,16,12,26,177,35,02,16,070,18,10,11,230,,24,08,163,40*7C
$GPGSV,4,4,16,20,05,042,,11,04,073,15,26,02,313,16,193,,,*70
$GPGLL,1529.6468,N,07356.7508,E,070524.000,A,D*56
$GPTXT,01,01,02,ANTSTATUS=OPEN*2B
$GPRMC,070525.000,A,1529.6468,N,07356.7508,E,0.00,0.00,200722,,,D*65
$GPVTG,0.00,T,,M,0.00,N,0.00,K,D*38
$GPGGA,070525.000,1529.6468,N,07356.7508,E,2,9,0.87,46.4,M,-75.3,M,,*48
$GPGSA,A,3,05,29,23,18,25,13,15,24,12,,,,1.23,0.87,0.87*00
$GPGSV,4,1,16,40,61,232,41,29,57,356,38,15,56,128,46,25,44,222,38*7C
$GPGSV,4,2,16,23,38,244,37,05,34,027,43,13,33,083,44,18,28,315,36*7C
$GPGSV,4,3,16,12,26,177,35,02,16,070,17,10,11,230,,24,08,163,40*73
$GPGSV,4,4,16,20,05,042,,11,04,073,15,26,02,313,16,193,,,*70
$GPGLL,1529.6468,N,07356.7508,E,070525.000,A,D*57
$GPTXT,01,01,02,ANTSTATUS=OPEN*2B
$GPRMC,070526.000,A,1529.6468,N,07356.7508,E,0.00,0.00,200722,,,D*66
$GPVTG,0.00,T,,M,0.00,N,0.00,K,D*38
$GPGGA,070526.000,1529.6468,N,07356.7508,E,2,9,0.87,46.4,M,-75.3,M,,*4B
$GPGSA,A,3,05,29,23,18,25,13,15,24,12,,,,1.23,0.87,0.87*00
$GPGSV,4,1,16,40,61,232,41,29,57,356,38,15,56,128,46,25,44,222,38*7C
$GPGSV,4,2,16,23,38,244,36,05,34,027,43,13,33,083,44,18,28,315,36*7D
$GPGSV,4,3,16,12,26,177,35,02,16,070,17,10,11,230,,24,08,163,40*73
$GPGSV,4,4,16,20,05,042,,11,04,073,15,26,02,313,16,193,,,*70
$GPGLL,1529.6468,N,07356.7508,E,070526.000,A,D*54
$GPTXT,01,01,02,ANTSTATUS=OPEN*2B
$GPRMC,070527.000,A,1529.6468,N,07356.7508,E,0.00,0.00,200722,,,D*67
$GPVTG,0.00,T,,M,0.00,N,0.00,K,D*38
$GPGGA,070527.000,1529.6468,N,07356.7508,E,2,9,0.87,46.5,M,-75.3,M,,*4B
$GPGSA,A,3,05,29,23,18,25,13,15,24,12,,,,1.23,0.87,0.87*00
$GPGSV,4,1,16,40,61,232,41,29,57,356,38,15,56,128,46,25,44,222,37*73
$GPGSV,4,2,16,23,38,244,37,05,34,027,44,13,33,083,44,18,28,315,36*7B
$GPGSV,4,3,16,12,26,177,34,02,16,070,16,10,11,230,,24,08,163,39*7D
$GPGSV,4,4,16,20,05,042,,11,04,073,15,26,02,313,18,193,,,*7E
$GPGLL,1529.6468,N,07356.7508,E,070527.000,A,D*55
$GPTXT,01,01,02,ANTSTATUS=OPEN*2B
$GPRMC,070528.000,A,1529.6468,N,07356.7508,E,0.00,0.00,200722,,,D*68
$GPVTG,0.00,T,,M,0.00,N,0.00,K,D*38
$GPGGA,070528.000,1529.6468,N,07356.7508,E,2,9,0.87,46.5,M,-75.3,M,,*44
$GPGSA,A,3,05,29,23,18,25,13,15,24,12,,,,1.23,0.87,0.87*00
$GPGSV,4,1,16,40,61,232,41,29,57,356,39,15,56,128,46,25,44,222,37*72
$GPGSV,4,2,16,23,38,244,37,05,34,027,44,13,33,083,45,18,28,315,36*7A
$GPGSV,4,3,16,12,26,177,35,02,16,070,15,10,11,230,,24,08,163,39*7F
$GPGSV,4,4,16,20,05,042,,11,04,073,14,26,02,313,19,193,,,*7E
$GPGLL,1529.6468,N,07356.7508,E,070528.000,A,D*5A
$GPTXT,01,01,02,ANTSTATUS=OPEN*2B
$GPRMC,070529.000,A,1529.6468,N,07356.7508,E,0.00,0.00,200722,,,D*69
$GPVTG,0.00,T,,M,0.00,N,0.00,K,D*38
$GPGGA,070529.000,1529.6468,N,07356.7508,E,2,9,0.87,46.6,M,-75.3,M,,*46
$GPGSA,A,3,05,29,23,18,25,13,15,24,12,,,,1.23,0.87,0.87*00
$GPGSV,4,1,16,40,61,232,41,29,57,356,39,15,56,128,46,25,44,222,37*72
$GPGSV,4,2,16,23,38,244,37,05,34,027,44,13,33,083,45,18,28,315,26*7B
$GPGSV,4,3,16,12,26,177,35,02,16,070,16,10,11,230,,24,08,163,39*7C
$GPGSV,4,4,16,20,05,042,,11,04,073,14,26,02,313,20,193,,,*74
$GPGLL,1529.6468,N,07356.7508,E,070529.000,A,D*5B
$GPTXT,01,01,02,ANTSTATUS=OPEN*2B
$GPRMC,070530.000,A,1529.6468,N,07356.7508,E,0.00,0.00,200722,,,D*61
$GPVTG,0.00,T,,M,0.00,N,0.00,K,D*38
$GPGGA,070530.000,1529.6468,N,07356.7508,E,2,9,0.87,46.7,M,-75.3,M,,*4F
$GPGSA,A,3,05,29,23,18,25,13,15,24,12,,,,1.23,0.87,0.87*00
$GPGSV,4,1,16,40,61,232,42,29,57,356,37,15,56,128,46,25,44,222,36*7E
$GPGSV,4,2,16,23,38,244,38,05,34,027,43,13,33,083,45,18,28,315,35*71
$GPGSV,4,3,16,12,26,177,34,02,16,070,17,10,11,230,,24,08,163,39*7C
$GPGSV,4,4,16,20,05,042,,11,04,073,13,26,02,313,21,193,,,*72
$GPGLL,1529.6468,N,07356.7508,E,070530.000,A,D*53
$GPTXT,01,01,02,ANTSTATUS=OPEN*2B
$GPRMC,070531.000,A,1529.6468,N,07356.7508,E,0.00,0.00,200722,,,D*60
$GPVTG,0.00,T,,M,0.00,N,0.00,K,D*38
$GPGGA,070531.000,1529.6468,N,07356.7508,E,2,9,0.87,46.7,M,-75.3,M,,*4E
$GPGSA,A,3,05,29,23,18,25,13,15,24,12,,,,1.23,0.87,0.87*00
$GPGSV,4,1,16,40,61,232,42,29,57,356,30,15,56,128,46,25,44,222,36*79
$GPGSV,4,2,16,23,38,244,37,05,34,027,34,13,33,083,45,18,28,315,35*7E
$GPGSV,4,3,16,12,26,177,35,02,16,070,17,10,11,231,,24,08,163,39*7C
$GPGSV,4,4,16,20,05,042,,11,04,073,13,26,02,313,22,193,,,*71
$GPGLL,1529.6468,N,07356.7508,E,070531.000,A,D*52
$GPTXT,01,01,02,ANTSTATUS=OPEN*2B
$GPRMC,070532.000,A,1529.6468,N,07356.7508,E,0.00,0.00,200722,,,D*63
$GPVTG,0.00,T,,M,0.00,N,0.00,K,D*38
$GPGGA,070532.000,1529.6468,N,07356.7508,E,2,9,0.87,46.8,M,-75.3,M,,*42
$GPGSA,A,3,05,29,23,18,25,13,15,24,12,,,,1.23,0.87,0.87*00
$GPGSV,4,1,16,40,61,232,43,29,57,356,32,15,56,128,46,25,44,222,37*7B
$GPGSV,4,2,16,23,38,244,38,05,34,027,35,13,33,083,45,18,28,315,36*73
$GPGSV,4,3,16,12,26,177,35,02,16,070,18,10,11,231,,24,08,163,40*7D
$GPGSV,4,4,16,20,05,042,,11,04,073,12,26,02,313,21,193,,,*73
$GPGLL,1529.6468,N,07356.7508,E,070532.000,A,D*51
$GPTXT,01,01,02,ANTSTATUS=OPEN*2B
$GPRMC,070533.000,A,1529.6468,N,07356.7508,E,0.00,0.00,200722,,,D*62
$GPVTG,0.00,T,,M,0.00,N,0.00,K,D*38
$GPGGA,070533.000,1529.6468,N,07356.7508,E,2,9,0.87,46.8,M,-75.3,M,,*43
$GPGSA,A,3,05,29,23,18,25,13,15,24,12,,,,1.23,0.87,0.87*00
$GPGSV,4,1,16,40,61,232,43,29,57,356,33,15,56,128,46,25,44,222,37*7A
$GPGSV,4,2,16,23,38,244,37,05,34,027,44,13,33,083,45,18,28,315,36*7A
$GPGSV,4,3,16,12,26,177,35,02,16,070,18,10,11,231,,24,08,163,40*7D
$GPGSV,4,4,16,20,05,042,,11,04,073,12,26,02,313,21,193,,,*73
$GPGLL,1529.6468,N,07356.7508,E,070533.000,A,D*50
$GPTXT,01,01,02,ANTSTATUS=OPEN*2B
$GPRMC,070534.000,A,1529.6468,N,07356.7508,E,0.00,0.00,200722,,,D*65
$GPVTG,0.00,T,,M,0.00,N,0.00,K,D*38
$GPGGA,070534.000,1529.6468,N,07356.7508,E,2,9,0.87,46.9,M,-75.3,M,,*45
$GPGSA,A,3,05,29,23,18,25,13,15,24,12,,,,1.23,0.87,0.87*00
$GPGSV,4,1,16,40,61,232,42,29,57,356,32,15,56,128,46,25,44,222,38*75
$GPGSV,4,2,16,23,38,244,36,05,34,027,44,13,33,082,45,18,28,315,35*79
$GPGSV,4,3,16,12,26,177,35,02,16,070,18,10,11,231,,24,08,163,40*7D
$GPGSV,4,4,16,20,05,042,,11,04,073,12,26,02,313,,193,,,*70
$GPGLL,1529.6468,N,07356.7508,E,070534.000,A,D*57
$GPTXT,01,01,02,ANTSTATUS=OPEN*2B
$GPRMC,070535.000,A,1529.6468,N,07356.7508,E,0.00,0.00,200722,,,D*64
$GPVTG,0.00,T,,M,0.00,N,0.00,K,D*38
$GPGGA,070535.000,1529.6468,N,07356.7508,E,2,9,0.87,46.9,M,-75.3,M,,*44
$GPGSA,A,3,05,29,23,18,25,13,15,24,12,,,,1.23,0.87,0.87*00
$GPGSV,4,1,16,40,61,232,42,29,57,356,31,15,56,128,46,25,44,222,38*76
$GPGSV,4,2,16,23,38,244,36,05,34,027,44,13,33,082,45,18,28,315,36*7A
$GPGSV,4,3,16,12,26,177,35,02,16,070,18,10,11,231,,24,08,163,40*7D
$GPGSV,4,4,16,20,05,042,,11,04,073,13,26,02,313,19,193,,,*79
$GPGLL,1529.6468,N,07356.7508,E,070535.000,A,D*56
$GPTXT,01,01,02,ANTSTATUS=OPEN*2B
$GPRMC,070536.000,A,1529.6468,N,07356.7508,E,0.00,0.00,200722,,,D*67
$GPVTG,0.00,T,,M,0.00,N,0.00,K,D*38
$GPGGA,070536.000,1529.6468,N,07356.7508,E,2,9,0.87,47.0,M,-75.3,M,,*4F
$GPGSA,A,3,05,29,23,18,25,13,15,24,12,,,,1.23,0.87,0.87*00
$GPGSV,4,1,16,40,61,232,42,29,57,356,33,15,57,128,46,25,44,222,39*74
$GPGSV,4,2,16,23,38,244,36,05,34,027,44,13,33,082,45,18,28,315,36*7A
$GPGSV,4,3,16,12,26,177,35,02,16,070,18,10,11,231,,24,08,163,40*7D
$GPGSV,4,4,16,20,05,042,,11,04,073,13,26,02,313,18,193,,,*78
$GPGLL,1529.6468,N,07356.7508,E,070536.000,A,D*55
$GPTXT,01,01,02,ANTSTATUS=OPEN*2B
$GPRMC,070537.000,A,1529.6468,N,07356.7508,E,0.00,0.00,200722,,,D*66
$GPVTG,0.00,T,,M,0.00,N,0.00,K,D*38
$GPGGA,070537.000,1529.6468,N,07356.7508,E,2,9,0.87,47.1,M,-75.3,M,,*4F
$GPGSA,A,3,05,29,23,18,25,13,15,24,12,,,,1.23,0.87,0.87*00
$GPGSV,4,1,16,40,61,232,42,29,57,356,32,15,57,128,46,25,44,222,39*75
$GPGSV,4,2,16,23,38,244,37,05,34,027,44,13,33,082,45,18,28,315,36*7B
$GPGSV,4,3,16,12,26,177,34,02,16,070,18,10,11,231,,24,08,163,40*7C
$GPGSV,4,4,16,20,05,042,,11,04,073,13,26,02,313,18,193,,,*78
$GPGLL,1529.6468,N,07356.7508,E,070537.000,A,D*54
$GPTXT,01,01,02,ANTSTATUS=OPEN*2B
$GPRMC,070538.000,A,1529.6468,N,07356.7508,E,0.00,0.00,200722,,,D*69
$GPVTG,0.00,T,,M,0.00,N,0.00,K,D*38
$GPGGA,070538.000,1529.6468,N,07356.7508,E,2,9,0.87,47.1,M,-75.3,M,,*40
$GPGSA,A,3,05,29,23,18,25,13,15,24,12,,,,1.23,0.87,0.87*00
$GPGSV,4,1,16,40,61,232,43,29,57,356,33,15,57,128,46,25,44,222,39*75
$GPGSV,4,2,16,23,38,244,37,05,34,027,44,13,33,082,45,18,28,315,36*7B
$GPGSV,4,3,16,12,26,177,34,02,16,070,18,10,11,231,,24,08,163,40*7C
$GPGSV,4,4,16,20,05,042,,11,04,073,13,26,02,313,23,193,,,*70
$GPGLL,1529.6468,N,07356.7508,E,070538.000,A,D*5B
$GPTXT,01,01,02,ANTSTATUS=OPEN*2B
$GPRMC,070539.000,A,1529.6468,N,07356.7508,E,0.00,0.00,200722,,,D*68
$GPVTG,0.00,T,,M,0.00,N,0.00,K,D*38
$GPGGA,070539.000,1529.6468,N,07356.7508,E,2,9,0.87,47.2,M,-75.3,M,,*42
$GPGSA,A,3,05,29,23,18,25,13,15,24,12,,,,1.23,0.87,0.87*00
$GPGSV,4,1,16,40,61,232,42,29,57,356,33,15,57,128,46,25,44,222,39*74
$GPGSV,4,2,16,23,38,244,38,05,34,027,44,13,33,082,45,18,28,316,36*77
$GPGSV,4,3,16,12,26,177,34,02,16,070,18,10,11,231,,24,08,163,40*7C
$GPGSV,4,4,16,20,05,042,,11,04,073,13,26,02,313,24,193,,,*77
$GPGLL,1529.6468,N,07356.7508,E,070539.000,A,D*5A
$GPTXT,01,01,02,ANTSTATUS=OPEN*2B
$GPRMC,070540.000,A,1529.6468,N,07356.7508,E,0.00,0.00,200722,,,D*66
$GPVTG,0.00,T,,M,0.00,N,0.00,K,D*38
$GPGGA,070540.000,1529.6468,N,07356.7508,E,2,9,0.87,47.2,M,-75.3,M,,*4C
$GPGSA,A,3,05,29,23,18,25,13,15,24,12,,,,1.23,0.87,0.87*00
$GPGSV,4,1,16,40,61,232,42,29,57,356,32,15,57,128,46,25,44,222,39*75
$GPGSV,4,2,16,23,38,244,38,05,34,027,44,13,33,082,45,18,28,316,36*77
$GPGSV,4,3,16,12,26,177,35,02,16,070,18,10,11,231,,24,08,163,40*7D
$GPGSV,4,4,16,20,05,042,,11,04,073,13,26,02,313,23,193,,,*70
$GPGLL,1529.6468,N,07356.7508,E,070540.000,A,D*54
$GPTXT,01,01,02,ANTSTATUS=OPEN*2B
$GPRMC,070541.000,A,1529.6468,N,07356.7508,E,0.00,0.00,200722,,,D*67
$GPVTG,0.00,T,,M,0.00,N,0.00,K,D*38
$GPGGA,070541.000,1529.6468,N,07356.7508,E,2,9,0.87,47.3,M,-75.3,M,,*4C
$GPGSA,A,3,05,29,23,18,25,13,15,24,12,,,,1.23,0.87,0.87*00
$GPGSV,4,1,16,40,61,232,42,29,57,356,33,15,57,128,46,25,44,222,40*7A
$GPGSV,4,2,16,23,38,244,38,05,34,027,44,13,33,082,45,18,28,316,36*77
$GPGSV,4,3,16,12,26,177,35,02,16,070,18,10,11,231,,24,08,163,40*7D
$GPGSV,4,4,16,20,05,042,,11,04,073,13,26,02,313,22,193,,,*71
$GPGLL,1529.6468,N,07356.7508,E,070541.000,A,D*55
$GPTXT,01,01,02,ANTSTATUS=OPEN*2B
$GPRMC,070542.000,A,1529.6468,N,07356.7508,E,0.00,0.00,200722,,,D*64
$GPVTG,0.00,T,,M,0.00,N,0.00,K,D*38
$GPGGA,070542.000,1529.6468,N,07356.7508,E,2,9,0.87,47.3,M,-75.3,M,,*4F
$GPGSA,A,3,05,29,23,18,25,13,15,24,12,,,,1.23,0.87,0.87*00
$GPGSV,4,1,16,40,61,232,41,29,57,356,34,15,57,128,46,25,44,222,40*7E
$GPGSV,4,2,16,23,38,244,38,05,34,027,44,13,33,082,45,18,28,316,36*77
$GPGSV,4,3,16,12,26,177,35,02,16,070,18,10,11,231,,24,08,163,40*7D
$GPGSV,4,4,16,20,05,042,,11,04,073,13,26,02,313,23,193,,,*70
$GPGLL,1529.6468,N,07356.7508,E,070542.000,A,D*56
$GPTXT,01,01,02,ANTSTATUS=OPEN*2B
$GPRMC,070543.000,A,1529.6468,N,07356.7508,E,0.00,0.00,200722,,,D*65
$GPVTG,0.00,T,,M,0.00,N,0.00,K,D*38
$GPGGA,070543.000,1529.6468,N,07356.7508,E,2,9,0.87,47.4,M,-75.3,M,,*49
$GPGSA,A,3,05,29,23,18,25,13,15,24,12,,,,1.23,0.87,0.87*00
$GPGSV,4,1,16,40,61,232,41,29,57,356,35,15,57,128,46,25,44,222,40*7F
$GPGSV,4,2,16,23,38,244,38,05,34,027,44,13,33,082,45,18,28,316,36*77
$GPGSV,4,3,16,12,26,177,35,02,16,070,18,10,11,231,,24,08,163,40*7D
$GPGSV,4,4,16,20,05,042,,11,04,073,13,26,02,313,23,193,,,*70
$GPGLL,1529.6468,N,07356.7508,E,070543.000,A,D*57
$GPTXT,01,01,02,ANTSTATUS=OPEN*2B
$GPRMC,070544.000,A,1529.6468,N,07356.7508,E,0.00,0.00,200722,,,D*62
$GPVTG,0.00,T,,M,0.00,N,0.00,K,D*38
$GPGGA,070544.000,1529.6468,N,07356.7508,E,2,9,0.87,47.4,M,-75.3,M,,*4E
$GPGSA,A,3,05,29,23,18,25,13,15,24,12,,,,1.23,0.87,0.87*00
$GPGSV,4,1,16,40,61,232,41,29,57,356,35,15,57,128,45,25,44,222,40*7C
$GPGSV,4,2,16,23,38,244,38,05,34,027,44,13,33,082,45,18,28,316,36*77
$GPGSV,4,3,16,12,26,177,35,02,16,070,18,10,11,231,,24,08,163,40*7D
$GPGSV,4,4,16,20,05,042,,11,04,073,13,26,02,313,23,193,,,*70
$GPGLL,1529.6468,N,07356.7508,E,070544.000,A,D*50
$GPTXT,01,01,02,ANTSTATUS=OPEN*2B
$GPRMC,070545.000,A,1529.6468,N,07356.7508,E,0.00,0.00,200722,,,D*63
$GPVTG,0.00,T,,M,0.00,N,0.00,K,D*38
$GPGGA,070545.000,1529.6468,N,07356.7508,E,2,9,0.87,47.5,M,-75.3,M,,*4E
$GPGSA,A,3,05,29,23,18,25,13,15,24,12,,,,1.23,0.87,0.87*00
$GPGSV,4,1,16,40,61,232,41,29,57,356,35,15,57,128,45,25,44,222,40*7C
$GPGSV,4,2,16,23,38,244,39,05,34,027,44,13,33,082,45,18,28,316,36*76
$GPGSV,4,3,16,12,26,177,36,02,16,070,17,10,11,231,,24,08,163,40*71
$GPGSV,4,4,16,20,05,042,,11,04,073,,26,02,313,23,193,,,*72
$GPGLL,1529.6468,N,07356.7508,E,070545.000,A,D*51
$GPTXT,01,01,02,ANTSTATUS=OPEN*2B
$GPRMC,070546.000,A,1529.6468,N,07356.7508,E,0.00,0.00,200722,,,D*60
$GPVTG,0.00,T,,M,0.00,N,0.00,K,D*38
$GPGGA,070546.000,1529.6468,N,07356.7508,E,2,9,0.87,47.6,M,-75.3,M,,*4E
$GPGSA,A,3,05,29,23,18,25,13,15,24,12,,,,1.23,0.87,0.87*00
$GPGSV,4,1,16,40,61,232,41,29,57,356,35,15,57,128,46,25,44,222,40*7F
$GPGSV,4,2,16,23,38,244,39,05,34,027,44,13,33,082,45,18,28,316,36*76
$GPGSV,4,3,16,12,26,177,36,02,16,070,17,10,11,231,,24,08,163,40*71
$GPGSV,4,4,16,20,05,042,,11,04,073,,26,02,313,23,193,,,*72
$GPGLL,1529.6468,N,07356.7508,E,070546.000,A,D*52
$GPTXT,01,01,02,ANTSTATUS=OPEN*2B
$GPRMC,070547.000,A,1529.6468,N,07356.7508,E,0.00,0.00,200722,,,D*61
$GPVTG,0.00,T,,M,0.00,N,0.00,K,D*38
$GPGGA,070547.000,1529.6468,N,07356.7508,E,2,9,0.87,47.6,M,-75.3,M,,*4F
$GPGSA,A,3,05,29,23,18,25,13,15,24,12,,,,1.23,0.87,0.87*00
$GPGSV,4,1,16,40,61,232,41,29,57,356,35,15,57,128,46,25,44,222,40*7F
$GPGSV,4,2,16,23,38,244,39,05,34,027,44,13,33,082,45,18,28,316,36*76
$GPGSV,4,3,16,12,26,177,36,02,16,070,16,10,11,231,,24,08,163,40*70
$GPGSV,4,4,16,20,05,042,,11,04,073,,26,02,313,24,193,,,*75
$GPGLL,1529.6468,N,07356.7508,E,070547.000,A,D*53
$GPTXT,01,01,02,ANTSTATUS=OPEN*2B
$GPRMC,070548.000,A,1529.6468,N,07356.7508,E,0.00,0.00,200722,,,D*6E
$GPVTG,0.00,T,,M,0.00,N,0.00,K,D*38
$GPGGA,070548.000,1529.6468,N,07356.7508,E,2,9,0.87,47.7,M,-75.3,M,,*41
$GPGSA,A,3,05,29,23,18,25,13,15,24,12,,,,1.23,0.87,0.87*00
$GPGSV,4,1,16,40,61,232,41,29,57,356,35,15,57,128,46,25,44,222,40*7F
$GPGSV,4,2,16,23,38,244,39,05,34,027,44,13,33,082,45,18,28,316,36*76
$GPGSV,4,3,16,12,26,177,35,02,16,070,15,10,11,231,,24,08,163,40*70
$GPGSV,4,4,16,20,05,042,,11,04,073,,26,02,313,24,193,,,*75
$GPGLL,1529.6468,N,07356.7508,E,070548.000,A,D*5C
$GPTXT,01,01,02,ANTSTATUS=OPEN*2B
$GPRMC,070549.000,A,1529.6468,N,07356.7508,E,0.00,0.00,200722,,,D*6F
$GPVTG,0.00,T,,M,0.00,N,0.00,K,D*38
$GPGGA,070549.000,1529.6468,N,07356.7508,E,2,9,0.87,47.7,M,-75.3,M,,*40
$GPGSA,A,3,05,29,23,18,25,13,15,24,12,,,,1.23,0.87,0.87*00
$GPGSV,4,1,16,40,61,232,41,29,57,356,36,15,57,128,46,25,44,222,40*7C
$GPGSV,4,2,16,23,38,244,39,05,34,027,44,13,33,082,45,18,28,316,36*76
$GPGSV,4,3,16,12,26,177,35,02,16,070,15,10,11,231,,24,08,163,40*70
$GPGSV,4,4,16,20,05,042,,11,04,073,,26,02,313,25,193,,,*74
$GPGLL,1529.6468,N,07356.7508,E,070549.000,A,D*5D
$GPTXT,01,01,02,ANTSTATUS=OPEN*2B
$GPRMC,070550.000,A,1529.6468,N,07356.7508,E,0.00,0.00,200722,,,D*67
$GPVTG,0.00,T,,M,0.00,N,0.00,K,D*38
$GPGGA,070550.000,1529.6468,N,07356.7508,E,2,9,0.87,47.8,M,-75.3,M,,*47
$GPGSA,A,3,05,29,23,18,25,13,15,24,12,,,,1.23,0.87,0.87*00
$GPGSV,4,1,16,40,61,232,42,29,57,356,35,15,57,128,46,25,44,222,40*7C
$GPGSV,4,2,16,23,38,244,39,05,34,027,44,13,33,082,44,18,28,316,36*77
$GPGSV,4,3,16,12,26,177,35,02,16,070,16,10,11,231,,24,08,163,40*73
$GPGSV,4,4,16,20,05,042,,11,04,073,,26,02,313,25,193,,,*74
$GPGLL,1529.6468,N,07356.7508,E,070550.000,A,D*55
$GPTXT,01,01,02,ANTSTATUS=OPEN*2B
$GPRMC,070551.000,A,1529.6468,N,07356.7508,E,0.00,0.00,200722,,,D*66
$GPVTG,0.00,T,,M,0.00,N,0.00,K,D*38
$GPGGA,070551.000,1529.6468,N,07356.7508,E,2,9,0.87,47.9,M,-75.3,M,,*47
$GPGSA,A,3,05,29,23,18,25,13,15,24,12,,,,1.23,0.87,0.87*00
$GPGSV,4,1,16,40,61,232,42,29,58,356,36,15,57,128,46,25,44,222,40*70
$GPGSV,4,2,16,23,38,244,39,05,34,027,44,13,33,082,44,18,28,316,36*77
$GPGSV,4,3,16,12,26,177,35,02,16,070,15,10,11,231,,24,08,163,40*70
$GPGSV,4,4,16,20,05,042,,11,04,073,,26,02,313,25,193,,,*74
$GPGLL,1529.6468,N,07356.7508,E,070551.000,A,D*54
$GPTXT,01,01,02,ANTSTATUS=OPEN*2B
$GPRMC,070552.000,A,1529.6468,N,07356.7508,E,0.00,0.00,200722,,,D*65
$GPVTG,0.00,T,,M,0.00,N,0.00,K,D*38
$GPGGA,070552.000,1529.6468,N,07356.7508,E,2,9,0.87,47.9,M,-75.3,M,,*44
$GPGSA,A,3,05,29,23,18,25,13,15,24,12,,,,1.23,0.87,0.87*00
$GPGSV,4,1,16,40,61,232,42,29,58,356,36,15,57,128,46,25,44,222,40*70
$GPGSV,4,2,16,23,38,244,39,05,34,027,44,13,33,082,44,18,28,316,36*77
$GPGSV,4,3,16,12,26,177,35,02,16,070,17,10,11,231,,24,08,163,40*72
$GPGSV,4,4,16,20,05,042,,11,04,073,,26,02,313,25,193,,,*74
$GPGLL,1529.6468,N,07356.7508,E,070552.000,A,D*57
$GPTXT,01,01,02,ANTSTATUS=OPEN*2B
$GPRMC,070553.000,A,1529.6468,N,07356.7508,E,0.00,0.00,200722,,,D*64
$GPVTG,0.00,T,,M,0.00,N,0.00,K,D*38
$GPGGA,070553.000,1529.6468,N,07356.7508,E,2,9,0.87,48.0,M,-75.3,M,,*43
$GPGSA,A,3,05,29,23,18,25,13,15,24,12,,,,1.23,0.87,0.87*00
$GPGSV,4,1,16,40,61,232,42,29,58,356,36,15,57,128,46,25,44,222,40*70
$GPGSV,4,2,16,23,38,244,38,05,34,027,44,13,33,082,44,18,28,316,36*76
$GPGSV,4,3,16,12,26,177,35,02,16,070,24,10,11,231,,24,08,163,40*72
$GPGSV,4,4,16,20,05,042,,11,04,073,,26,02,313,25,193,,,*74
$GPGLL,1529.6468,N,07356.7508,E,070553.000,A,D*56
$GPTXT,01,01,02,ANTSTATUS=OPEN*2B
$GPRMC,070554.000,A,1529.6468,N,07356.7508,E,0.00,0.00,200722,,,D*63
$GPVTG,0.00,T,,M,0.00,N,0.00,K,D*38
$GPGGA,070554.000,1529.6468,N,07356.7508,E,2,9,0.87,48.0,M,-75.3,M,,*44
$GPGSA,A,3,05,29,23,18,25,13,15,24,12,,,,1.23,0.87,0.87*00
$GPGSV,4,1,16,40,61,232,42,29,58,356,36,15,57,128,46,25,44,222,40*70
$GPGSV,4,2,16,23,38,244,38,05,34,027,43,13,33,082,44,18,28,316,36*71
$GPGSV,4,3,16,12,26,177,36,02,16,070,24,10,11,231,,24,08,163,40*71
$GPGSV,4,4,16,20,05,042,,11,04,073,,26,02,313,25,193,,,*74
$GPGLL,1529.6468,N,07356.7508,E,070554.000,A,D*51
$GPTXT,01,01,02,ANTSTATUS=OPEN*2B
$GPRMC,070555.000,A,1529.6468,N,07356.7508,E,0.00,0.00,200722,,,D*62
$GPVTG,0.00,T,,M,0.00,N,0.00,K,D*38
$GPGGA,070555.000,1529.6468,N,07356.7508,E,2,9,0.87,48.1,M,-75.3,M,,*44
$GPGSA,A,3,05,29,23,18,25,13,15,24,12,,,,1.23,0.87,0.87*00
$GPGSV,4,1,16,40,61,232,42,29,58,356,36,15,57,128,46,25,44,222,40*70
$GPGSV,4,2,16,23,38,244,38,05,34,027,43,13,33,082,44,18,28,316,36*71
$GPGSV,4,3,16,12,26,177,35,02,16,070,24,10,11,231,,24,08,163,39*7C
$GPGSV,4,4,16,20,05,042,,11,04,073,,26,02,313,25,193,,,*74
$GPGLL,1529.6468,N,07356.7508,E,070555.000,A,D*50
$GPTXT,01,01,02,ANTSTATUS=OPEN*2B
$GPRMC,070556.000,A,1529.6468,N,07356.7508,E,0.00,0.00,200722,,,D*61
$GPVTG,0.00,T,,M,0.00,N,0.00,K,D*38
$GPGGA,070556.000,1529.6468,N,07356.7508,E,2,9,0.87,48.2,M,-75.3,M,,*44
$GPGSA,A,3,05,29,23,18,25,13,15,24,12,,,,1.23,0.87,0.87*00
$GPGSV,4,1,16,40,61,232,42,29,58,356,36,15,57,128,46,25,44,222,40*70
$GPGSV,4,2,16,23,38,244,38,05,34,027,43,13,33,082,44,18,28,316,36*71
$GPGSV,4,3,16,12,26,177,35,02,16,070,24,10,11,231,,24,08,163,39*7C
$GPGSV,4,4,16,20,05,042,,11,04,073,,26,02,313,25,193,,,*74
$GPGLL,1529.6468,N,07356.7508,E,070556.000,A,D*53
$GPTXT,01,01,02,ANTSTATUS=OPEN*2B
$GPRMC,070557.000,A,1529.6468,N,07356.7508,E,0.00,0.00,200722,,,D*60
$GPVTG,0.00,T,,M,0.00,N,0.00,K,D*38
$GPGGA,070557.000,1529.6468,N,07356.7508,E,2,9,0.87,48.2,M,-75.3,M,,*45
$GPGSA,A,3,05,29,23,18,25,13,15,24,12,,,,1.23,0.87,0.87*00
$GPGSV,4,1,16,40,61,232,42,29,58,356,35,15,57,128,46,25,44,222,40*73
$GPGSV,4,2,16,23,38,244,38,05,34,027,43,13,33,082,44,18,28,316,36*71
$GPGSV,4,3,16,12,26,177,36,02,16,070,23,10,11,231,,24,08,163,39*78
$GPGSV,4,4,16,20,05,042,,11,04,073,,26,02,313,24,193,,,*75
$GPGLL,1529.6468,N,07356.7508,E,070557.000,A,D*52
$GPTXT,01,01,02,ANTSTATUS=OPEN*2B
$GPRMC,070558.000,A,1529.6468,N,07356.7508,E,0.00,0.00,200722,,,D*6F
$GPVTG,0.00,T,,M,0.00,N,0.00,K,D*38
$GPGGA,070558.000,1529.6468,N,07356.7508,E,2,9,0.87,48.3,M,-75.3,M,,*4B
$GPGSA,A,3,05,29,23,18,25,13,15,24,12,,,,1.23,0.87,0.87*00
$GPGSV,4,1,16,40,61,232,42,29,58,356,35,15,57,128,46,25,44,222,40*73
$GPGSV,4,2,16,23,38,244,38,05,34,027,43,13,33,082,44,18,28,316,36*71
$GPGSV,4,3,16,12,26,177,36,02,16,070,23,10,11,231,,24,08,163,39*78
$GPGSV,4,4,16,20,05,042,,11,04,073,,26,02,313,24,193,,,*75
$GPGLL,1529.6468,N,07356.7508,E,070558.000,A,D*5D
$GPTXT,01,01,02,ANTSTATUS=OPEN*2B
$GPRMC,070559.000,A,1529.6468,N,07356.7508,E,0.00,0.00,200722,,,D*6E
$GPVTG,0.00,T,,M,0.00,N,0.00,K,D*38
$GPGGA,070559.000,1529.6468,N,07356.7508,E,2,9,0.87,48.3,M,-75.3,M,,*4A
$GPGSA,A,3,05,29,23,18,25,13,15,24,12,,,,1.23,0.87,0.87*00
$GPGSV,4,1,16,40,61,232,42,29,58,356,35,15,57,128,46,25,44,222,40*73
$GPGSV,4,2,16,23,38,244,38,05,34,027,43,13,33,082,44,18,28,316,36*71
$GPGSV,4,3,16,12,26,177,36,02,15,070,24,10,11,231,,24,08,163,39*7C
$GPGSV,4,4,16,20,05,042,,11,04,073,,26,02,313,23,193,,,*72
$GPGLL,1529.6468,N,07356.7508,E,070559.000,A,D*5C
$GPTXT,01,01,02,ANTSTATUS=OPEN*2B
$GPRMC,070600.000,A,1529.6468,N,07356.7508,E,0.00,0.00,200722,,,D*61
$GPVTG,0.00,T,,M,0.00,N,0.00,K,D*38
$GPGGA,070600.000,1529.6468,N,07356.7508,E,2,9,0.87,48.4,M,-75.3,M,,*42
$GPGSA,A,3,05,29,23,18,25,13,15,24,12,,,,1.23,0.87,0.87*00
$GPGSV,4,1,16,40,61,232,42,29,58,356,35,15,57,128,46,25,44,222,40*73
$GPGSV,4,2,16,23,38,244,38,05,34,027,42,13,33,082,44,18,28,316,36*70
$GPGSV,4,3,16,12,26,177,36,02,15,070,24,10,11,231,,24,08,163,39*7C
$GPGSV,4,4,16,20,05,042,,11,04,073,,26,02,313,23,193,,,*72
$GPGLL,1529.6468,N,07356.7508,E,070600.000,A,D*53
$GPTXT,01,01,02,ANTSTATUS=OPEN*2B
$GPRMC,070601.000,A,1529.6468,N,07356.7508,E,0.00,0.00,200722,,,D*60
$GPVTG,0.00,T,,M,0.00,N,0.00,K,D*38
$GPGGA,070601.000,1529.6468,N,07356.7508,E,2,9,0.87,48.5,M,-75.3,M,,*42
$GPGSA,A,3,05,29,23,18,25,13,15,24,12,,,,1.23,0.87,0.87*00
$GPGSV,4,1,16,40,61,232,42,29,58,356,36,15,57,128,46,25,44,222,40*70
$GPGSV,4,2,16,23,38,244,38,05,34,027,42,13,33,082,44,18,28,316,36*70
$GPGSV,4,3,16,12,26,177,36,02,15,070,24,10,11,231,,24,08,163,39*7C
$GPGSV,4,4,16,20,05,042,,11,04,073,,26,02,313,22,193,,,*73
$GPGLL,1529.6468,N,07356.7508,E,070601.000,A,D*52
$GPTXT,01,01,02,ANTSTATUS=OPEN*2B
$GPRMC,070602.000,A,1529.6468,N,07356.7508,E,0.00,0.00,200722,,,D*63
$GPVTG,0.00,T,,M,0.00,N,0.00,K,D*38
$GPGGA,070602.000,1529.6468,N,07356.7508,E,2,9,0.87,48.5,M,-75.3,M,,*41
$GPGSA,A,3,05,29,23,18,25,13,15,24,12,,,,1.23,0.87,0.87*00
$GPGSV,4,1,16,40,61,232,42,29,58,356,37,15,57,128,46,25,44,222,40*71
$GPGSV,4,2,16,23,38,244,38,05,33,027,41,13,33,082,44,18,28,316,37*75
$GPGSV,4,3,16,12,26,177,36,02,15,070,24,10,11,231,,24,08,163,39*7C
$GPGSV,4,4,16,20,05,042,,11,04,073,,26,02,313,23,193,,,*72
$GPGLL,1529.6468,N,07356.7508,E,070602.000,A,D*51
$GPTXT,01,01,02,ANTSTATUS=OPEN*2B
$GPRMC,070603.000,A,1529.6468,N,07356.7508,E,0.00,0.00,200722,,,D*62
$GPVTG,0.00,T,,M,0.00,N,0.00,K,D*38
$GPGGA,070603.000,1529.6468,N,07356.7508,E,2,9,0.87,48.6,M,-75.3,M,,*43
$GPGSA,A,3,05,29,23,18,25,13,15,24,12,,,,1.23,0.87,0.87*00
$GPGSV,4,1,16,40,61,232,42,29,58,356,35,15,57,128,46,25,44,222,40*73
$GPGSV,4,2,16,23,38,244,39,05,33,027,41,13,33,082,44,18,28,316,37*74
$GPGSV,4,3,16,12,26,177,37,02,15,070,25,10,11,231,,24,08,163,39*7C
$GPGSV,4,4,16,20,05,042,,11,04,073,,26,02,313,23,193,,,*72
$GPGLL,1529.6468,N,07356.7508,E,070603.000,A,D*50
$GPTXT,01,01,02,ANTSTATUS=OPEN*2B
$GPRMC,070604.000,A,1529.6468,N,07356.7508,E,0.00,0.00,200722,,,D*65
$GPVTG,0.00,T,,M,0.00,N,0.00,K,D*38
$GPGGA,070604.000,1529.6468,N,07356.7508,E,2,9,0.87,48.7,M,-75.3,M,,*45
$GPGSA,A,3,05,29,23,18,25,13,15,24,12,,,,1.23,0.87,0.87*00
$GPGSV,4,1,16,40,61,232,42,29,58,356,37,15,57,128,45,25,44,222,40*72
$GPGSV,4,2,16,23,38,244,39,05,33,027,42,13,33,082,44,18,28,316,37*77
$GPGSV,4,3,16,12,26,177,37,02,15,070,24,10,11,231,,24,08,163,39*7D
$GPGSV,4,4,16,20,05,042,,11,04,073,,26,02,313,23,193,,,*72
$GPGLL,1529.6468,N,07356.7508,E,070604.000,A,D*57
$GPTXT,01,01,02,ANTSTATUS=OPEN*2B
$GPRMC,070605.000,A,1529.6468,N,07356.7508,E,0.00,0.00,200722,,,D*64
$GPVTG,0.00,T,,M,0.00,N,0.00,K,D*38
$GPGGA,070605.000,1529.6468,N,07356.7508,E,2,9,0.87,48.7,M,-75.3,M,,*44
$GPGSA,A,3,05,29,23,18,25,13,15,24,12,,,,1.23,0.87,0.87*00
$GPGSV,4,1,16,40,61,232,42,29,58,356,38,15,57,128,45,25,44,222,40*7D
$GPGSV,4,2,16,23,38,244,39,05,33,027,42,13,33,082,44,18,28,316,35*75
$GPGSV,4,3,16,12,26,177,37,02,15,070,24,10,11,231,,24,08,163,39*7D
$GPGSV,4,4,16,20,05,042,,11,04,073,,26,02,313,22,193,,,*73
$GPGLL,1529.6468,N,07356.7508,E,070605.000,A,D*56
$GPTXT,01,01,02,ANTSTATUS=OPEN*2B
$GPRMC,070606.000,A,1529.6468,N,07356.7508,E,0.00,0.00,200722,,,D*67
$GPVTG,0.00,T,,M,0.00,N,0.00,K,D*38
$GPGGA,070606.000,1529.6468,N,07356.7508,E,2,9,0.87,48.8,M,-75.3,M,,*48
$GPGSA,A,3,05,29,23,18,25,13,15,24,12,,,,1.23,0.87,0.87*00
$GPGSV,4,1,16,40,61,232,41,29,58,356,38,15,57,128,45,25,44,222,40*7E
$GPGSV,4,2,16,23,38,244,39,05,33,027,42,13,33,082,44,18,28,316,34*74
$GPGSV,4,3,16,12,26,177,37,02,15,070,22,10,11,231,,24,08,163,39*7B
$GPGSV,4,4,16,20,05,042,,11,04,073,,26,02,313,21,193,,,*70
$GPGLL,1529.6468,N,07356.7508,E,070606.000,A,D*55
$GPTXT,01,01,02,ANTSTATUS=OPEN*2B
$GPRMC,070607.000,A,1529.6468,N,07356.7508,E,0.00,0.00,200722,,,D*66
$GPVTG,0.00,T,,M,0.00,N,0.00,K,D*38
$GPGGA,070607.000,1529.6468,N,07356.7508,E,2,9,0.87,49.0,M,-75.3,M,,*40
$GPGSA,A,3,05,29,23,18,25,13,15,24,12,,,,1.23,0.87,0.87*00
$GPGSV,4,1,16,40,61,232,41,29,58,356,39,15,57,128,45,25,44,222,40*7F
$GPGSV,4,2,16,23,38,244,38,05,33,027,42,13,33,082,44,18,28,316,34*75
$GPGSV,4,3,16,12,26,177,36,02,15,070,21,10,12,231,,24,08,163,39*7A
$GPGSV,4,4,16,20,05,042,,11,04,073,,26,02,313,20,193,,,*71
$GPGLL,1529.6468,N,07356.7508,E,070607.000,A,D*54
$GPTXT,01,01,02,ANTSTATUS=OPEN*2B
$GPRMC,070608.000,A,1529.6468,N,07356.7508,E,0.00,0.00,200722,,,D*69
$GPVTG,0.00,T,,M,0.00,N,0.00,K,D*38
$GPGGA,070608.000,1529.6468,N,07356.7508,E,2,9,0.87,49.2,M,-75.3,M,,*4D
$GPGSA,A,3,05,29,23,18,25,13,15,24,12,,,,1.23,0.87,0.87*00
$GPGSV,4,1,16,40,61,232,41,29,58,356,39,15,57,128,45,25,44,222,40*7F
$GPGSV,4,2,16,23,38,244,37,05,33,027,42,13,33,082,43,18,28,316,34*7D
$GPGSV,4,3,16,12,26,177,36,02,15,070,20,10,12,231,,24,08,163,39*7B
$GPGSV,4,4,16,20,05,042,,11,04,073,,26,02,313,19,193,,,*7B
$GPGLL,1529.6468,N,07356.7508,E,070608.000,A,D*5B
$GPTXT,01,01,02,ANTSTATUS=OPEN*2B
$GPRMC,070609.000,A,1529.6468,N,07356.7508,E,0.00,0.00,200722,,,D*68
$GPVTG,0.00,T,,M,0.00,N,0.00,K,D*38
$GPGGA,070609.000,1529.6468,N,07356.7508,E,2,9,0.87,49.5,M,-75.3,M,,*4B
$GPGSA,A,3,05,29,23,18,25,13,15,24,12,,,,1.23,0.87,0.87*00
$GPGSV,4,1,16,40,61,232,40,29,58,356,39,15,57,128,44,25,44,222,40*7F
$GPGSV,4,2,16,23,38,244,37,05,33,027,42,13,33,082,43,18,28,316,32*7B
$GPGSV,4,3,16,12,25,177,35,02,15,070,20,10,12,231,,24,08,163,39*7B
$GPGSV,4,4,16,20,05,042,,11,04,073,,26,02,313,19,193,,,*7B
$GPGLL,1529.6468,N,07356.7508,E,070609.000,A,D*5A
$GPTXT,01,01,02,ANTSTATUS=OPEN*2B
$GPRMC,070610.000,A,1529.6468,N,07356.7508,E,0.00,0.00,200722,,,D*60
$GPVTG,0.00,T,,M,0.00,N,0.00,K,D*38
$GPGGA,070610.000,1529.6468,N,07356.7508,E,2,9,0.87,49.8,M,-75.3,M,,*4E
$GPGSA,A,3,05,29,23,18,25,13,15,24,12,,,,1.23,0.87,0.87*00
$GPGSV,4,1,16,40,61,232,40,29,58,356,39,15,57,128,44,25,44,222,40*7F
$GPGSV,4,2,16,23,38,244,36,05,33,027,42,13,33,082,43,18,28,316,32*7A
$GPGSV,4,3,16,12,25,177,35,02,15,070,20,10,12,231,,24,08,163,39*7B
$GPGSV,4,4,16,20,05,042,,11,04,073,,26,02,313,20,193,,,*71
$GPGLL,1529.6468,N,07356.7508,E,070610.000,A,D*52
$GPTXT,01,01,02,ANTSTATUS=OPEN*2B
$GPRMC,070611.000,A,1529.6468,N,07356.7508,E,0.00,0.00,200722,,,D*61
$GPVTG,0.00,T,,M,0.00,N,0.00,K,D*38
$GPGGA,070611.000,1529.6468,N,07356.7508,E,2,9,0.87,50.1,M,-75.3,M,,*4E
$GPGSA,A,3,05,29,23,18,25,13,15,24,12,,,,1.23,0.87,0.87*00
$GPGSV,4,1,16,40,61,232,40,29,58,356,39,15,57,128,44,25,44,222,40*7F
$GPGSV,4,2,16,23,38,244,36,05,33,027,42,13,33,082,43,18,28,316,31*79
$GPGSV,4,3,16,12,25,177,35,02,15,070,21,10,12,231,,24,08,163,39*7A
$GPGSV,4,4,16,20,05,042,,11,04,073,,26,02,313,20,193,,,*71
$GPGLL,1529.6468,N,07356.7508,E,070611.000,A,D*53
$GPTXT,01,01,02,ANTSTATUS=OPEN*2B
$GPRMC,070612.000,A,1529.6468,N,07356.7508,E,0.00,0.00,200722,,,D*62
$GPVTG,0.00,T,,M,0.00,N,0.00,K,D*38
$GPGGA,070612.000,1529.6468,N,07356.7508,E,2,9,0.87,50.5,M,-75.3,M,,*49
$GPGSA,A,3,05,29,23,18,25,13,15,24,12,,,,1.23,0.87,0.87*00
$GPGSV,4,1,16,40,61,232,40,29,58,356,39,15,57,127,44,25,44,222,40*70
$GPGSV,4,2,16,23,38,244,35,05,33,027,42,13,33,082,42,18,28,316,31*7B
$GPGSV,4,3,16,12,25,177,35,02,15,070,22,10,12,231,,24,08,163,39*79
$GPGSV,4,4,16,20,05,042,,11,04,073,,26,02,313,20,193,,,*71
$GPGLL,1529.6468,N,07356.7508,E,070612.000,A,D*50
$GPTXT,01,01,02,ANTSTATUS=OPEN*2B
$GPRMC,070613.000,A,1529.6468,N,07356.7508,E,0.00,0.00,200722,,,D*63
$GPVTG,0.00,T,,M,0.00,N,0.00,K,D*38
$GPGGA,070613.000,1529.6468,N,07356.7508,E,2,9,0.87,50.9,M,-75.3,M,,*44
$GPGSA,A,3,05,29,23,18,25,13,15,24,12,,,,1.23,0.87,0.87*00
$GPGSV,4,1,16,40,61,232,40,29,58,356,39,15,57,127,44,25,44,222,40*70
$GPGSV,4,2,16,23,38,244,35,05,33,027,42,13,33,082,42,18,28,316,31*7B
$GPGSV,4,3,16,12,25,177,35,02,15,070,22,10,12,231,,24,08,163,39*79
$GPGSV,4,4,16,20,05,042,,11,04,073,,26,02,313,19,193,,,*7B
$GPGLL,1529.6468,N,07356.7508,E,070613.000,A,D*51
$GPTXT,01,01,02,ANTSTATUS=OPEN*2B
$GPRMC,070614.000,A,1529.6468,N,07356.7508,E,0.00,0.00,200722,,,D*64
$GPVTG,0.00,T,,M,0.00,N,0.00,K,D*38
$GPGGA,070614.000,1529.6468,N,07356.7508,E,2,9,0.87,51.3,M,-75.3,M,,*48
$GPGSA,A,3,05,29,23,18,25,13,15,24,12,,,,1.23,0.87,0.87*00
$GPGSV,4,1,16,40,61,232,40,29,58,356,39,15,57,127,44,25,44,222,40*70
$GPGSV,4,2,16,23,38,244,35,05,33,027,42,13,33,082,42,18,28,316,31*7B
$GPGSV,4,3,16,12,25,177,35,02,15,070,23,10,12,231,,24,08,163,39*78
$GPGSV,4,4,16,20,05,042,,11,04,073,,26,02,313,18,193,,,*7A
$GPGLL,1529.6468,N,07356.7508,E,070614.000,A,D*56
$GPTXT,01,01,02,ANTSTATUS=OPEN*2B
$GPRMC,070615.000,A,1529.6468,N,07356.7508,E,0.00,0.00,200722,,,D*65
$GPVTG,0.00,T,,M,0.00,N,0.00,K,D*38
$GPGGA,070615.000,1529.6468,N,07356.7508,E,2,9,0.87,51.7,M,-75.3,M,,*4D
$GPGSA,A,3,05,29,23,18,25,13,15,24,12,,,,1.23,0.87,0.87*00
$GPGSV,4,1,16,40,61,232,40,29,58,356,39,15,57,127,44,25,44,222,40*70
$GPGSV,4,2,16,23,38,244,35,05,33,027,42,13,33,082,42,18,28,316,31*7B
$GPGSV,4,3,16,12,25,177,34,02,15,070,23,10,12,231,,24,08,163,39*79
$GPGSV,4,4,16,20,05,042,,11,04,073,,26,02,313,18,193,,,*7A
$GPGLL,1529.6468,N,07356.7508,E,070615.000,A,D*57
$GPTXT,01,01,02,ANTSTATUS=OPEN*2B
$GPRMC,070616.000,A,1529.6468,N,07356.7508,E,0.00,0.00,200722,,,D*66
$GPVTG,0.00,T,,M,0.00,N,0.00,K,D*38
$GPGGA,070616.000,1529.6468,N,07356.7508,E,2,9,0.87,52.1,M,-75.3,M,,*4B
$GPGSA,A,3,05,29,23,18,25,13,15,24,12,,,,1.23,0.87,0.87*00
$GPGSV,4,1,16,40,61,232,40,29,58,356,39,15,57,127,44,25,44,222,40*70
$GPGSV,4,2,16,23,38,244,36,05,33,027,42,13,33,082,42,18,28,316,32*7B
$GPGSV,4,3,16,12,25,177,34,02,15,070,23,10,12,231,,24,08,163,39*79
$GPGSV,4,4,16,20,05,042,,11,04,073,,26,02,313,20,193,,,*71
$GPGLL,1529.6468,N,07356.7508,E,070616.000,A,D*54
$GPTXT,01,01,02,ANTSTATUS=OPEN*2B
$GPRMC,070617.000,A,1529.6468,N,07356.7508,E,0.00,0.00,200722,,,D*67
$GPVTG,0.00,T,,M,0.00,N,0.00,K,D*38
$GPGGA,070617.000,1529.6468,N,07356.7508,E,2,9,0.87,52.6,M,-75.3,M,,*4D
$GPGSA,A,3,05,29,23,18,25,13,15,24,12,,,,1.23,0.87,0.87*00
$GPGSV,4,1,16,40,61,232,40,29,58,356,39,15,57,127,44,25,44,222,39*7E
$GPGSV,4,2,16,23,38,244,35,05,33,027,42,13,33,082,42,18,28,316,33*79
$GPGSV,4,3,16,12,25,177,33,02,15,070,22,10,12,231,,24,08,163,39*7F
$GPGSV,4,4,16,11,04,073,,20,04,042,,26,02,313,21,193,,,*71
$GPGLL,1529.6468,N,07356.7508,E,070617.000,A,D*55
$GPTXT,01,01,02,ANTSTATUS=OPEN*2B
$GPRMC,070618.000,A,1529.6468,N,07356.7508,E,0.00,0.00,200722,,,D*68
$GPVTG,0.00,T,,M,0.00,N,0.00,K,D*38
$GPGGA,070618.000,1529.6468,N,07356.7508,E,2,9,0.87,53.0,M,-75.3,M,,*45
$GPGSA,A,3,05,29,23,18,25,13,15,24,12,,,,1.23,0.87,0.87*00
$GPGSV,4,1,16,40,61,232,40,29,58,356,39,15,57,127,44,25,44,222,39*7E
$GPGSV,4,2,16,23,38,244,35,05,33,027,42,13,33,082,42,18,28,316,34*7E
$GPGSV,4,3,16,12,25,177,32,02,15,070,22,10,12,231,,24,08,163,39*7E
$GPGSV,4,4,16,11,04,073,,20,04,042,,26,02,313,21,193,,,*71
$GPGLL,1529.6468,N,07356.7508,E,070618.000,A,D*5A
$GPTXT,01,01,02,ANTSTATUS=OPEN*2B
$GPRMC,070619.000,A,1529.6468,N,07356.7508,E,0.00,0.00,200722,,,D*69
$GPVTG,0.00,T,,M,0.00,N,0.00,K,D*38
$GPGGA,070619.000,1529.6468,N,07356.7508,E,2,9,0.87,53.4,M,-75.3,M,,*40
$GPGSA,A,3,05,29,23,18,25,13,15,24,12,,,,1.23,0.87,0.87*00
$GPGSV,4,1,16,40,61,232,41,29,58,356,38,15,57,127,45,25,44,222,39*7F
$GPGSV,4,2,16,23,38,244,35,05,33,027,43,13,33,082,42,18,28,316,35*7E
$GPGSV,4,3,16,12,25,177,33,02,15,070,23,10,12,231,,24,08,163,39*7E
$GPGSV,4,4,16,11,04,073,,20,04,042,,26,02,313,22,193,,,*72
$GPGLL,1529.6468,N,07356.7508,E,070619.000,A,D*5B
$GPTXT,01,01,02,ANTSTATUS=OPEN*2B
$GPRMC,070620.000,A,1529.6468,N,07356.7508,E,0.00,0.00,200722,,,D*63
$GPVTG,0.00,T,,M,0.00,N,0.00,K,D*38
$GPGGA,070620.000,1529.6468,N,07356.7508,E,2,9,0.87,53.9,M,-75.3,M,,*47
$GPGSA,A,3,05,29,23,18,25,13,15,24,12,,,,1.23,0.87,0.87*00
$GPGSV,4,1,16,40,61,232,41,29,58,356,29,15,57,127,45,25,44,222,39*7F
$GPGSV,4,2,16,23,38,244,27,05,33,027,42,13,33,082,42,18,28,316,35*7C
$GPGSV,4,3,16,12,25,177,32,02,15,070,23,10,12,231,,24,08,163,39*7F
$GPGSV,4,4,16,11,04,073,,20,04,042,,26,02,313,23,193,,,*73
$GPGLL,1529.6468,N,07356.7508,E,070620.000,A,D*51
$GPTXT,01,01,02,ANTSTATUS=OPEN*2B
$GPRMC,070621.000,A,1529.6468,N,07356.7508,E,0.00,0.00,200722,,,D*62
$GPVTG,0.00,T,,M,0.00,N,0.00,K,D*38
$GPGGA,070621.000,1529.6468,N,07356.7508,E,2,9,0.87,54.3,M,-75.3,M,,*4B
$GPGSA,A,3,05,29,23,18,25,13,15,24,12,,,,1.23,0.87,0.87*00
$GPGSV,4,1,16,40,61,232,42,29,58,356,30,15,57,127,46,25,44,222,39*77
$GPGSV,4,2,16,23,38,244,25,05,33,027,43,13,33,082,42,18,28,316,36*7C
$GPGSV,4,3,16,12,25,177,33,02,15,070,22,10,12,231,,24,08,163,39*7F
$GPGSV,4,4,16,11,04,073,,20,04,042,,26,02,313,22,193,,,*72
$GPGLL,1529.6468,N,07356.7508,E,070621.000,A,D*50
$GPTXT,01,01,02,ANTSTATUS=OPEN*2B
$GPRMC,070622.000,A,1529.6468,N,07356.7508,E,0.00,0.00,200722,,,D*61
$GPVTG,0.00,T,,M,0.00,N,0.00,K,D*38
$GPGGA,070622.000,1529.6468,N,07356.7508,E,2,9,0.87,54.7,M,-75.3,M,,*4C
$GPGSA,A,3,05,29,23,18,25,13,15,24,12,,,,1.23,0.87,0.87*00
$GPGSV,4,1,16,40,61,232,42,29,58,356,32,15,57,127,46,25,44,221,38*77
$GPGSV,4,2,16,23,38,244,26,05,33,027,43,13,33,082,42,18,28,316,37*7E
$GPGSV,4,3,16,12,25,177,34,02,15,070,22,10,12,231,,24,08,163,39*78
$GPGSV,4,4,16,11,04,073,,20,04,042,,26,02,313,22,193,,,*72
$GPGLL,1529.6468,N,07356.7508,E,070622.000,A,D*53
$GPTXT,01,01,02,ANTSTATUS=OPEN*2B
$GPRMC,070623.000,A,1529.6468,N,07356.7508,E,0.00,0.00,200722,,,D*60
$GPVTG,0.00,T,,M,0.00,N,0.00,K,D*38
$GPGGA,070623.000,1529.6468,N,07356.7508,E,2,9,0.87,55.1,M,-75.3,M,,*4A
$GPGSA,A,3,05,29,23,18,25,13,15,24,12,,,,1.23,0.87,0.87*00
$GPGSV,4,1,16,40,61,232,41,29,58,356,33,15,57,127,46,25,44,221,38*75
$GPGSV,4,2,16,23,38,244,27,05,33,027,43,13,33,082,41,18,28,316,37*7C
$GPGSV,4,3,16,12,25,177,34,02,15,070,21,10,12,231,,24,08,163,39*7B
$GPGSV,4,4,16,11,04,073,,20,04,042,,26,02,313,23,193,,,*73
$GPGLL,1529.6468,N,07356.7508,E,070623.000,A,D*52
$GPTXT,01,01,02,ANTSTATUS=OPEN*2B
$GPRMC,070624.000,A,1529.6468,N,07356.7508,E,0.00,0.00,200722,,,D*67
$GPVTG,0.00,T,,M,0.00,N,0.00,K,D*38
$GPGGA,070624.000,1529.6468,N,07356.7508,E,2,9,0.87,55.5,M,-75.3,M,,*49
$GPGSA,A,3,05,29,23,18,25,13,15,24,12,,,,1.23,0.87,0.87*00
$GPGSV,4,1,16,40,61,232,42,29,58,356,34,15,57,127,46,25,44,221,38*71
$GPGSV,4,2,16,23,38,244,26,05,33,027,41,13,33,082,42,18,28,316,37*7C
$GPGSV,4,3,16,12,25,177,35,02,15,070,21,10,12,231,,24,08,163,39*7A
$GPGSV,4,4,16,11,04,073,,20,04,042,,26,02,313,24,193,,,*74
$GPGLL,1529.6468,N,07356.7508,E,070624.000,A,D*55
$GPTXT,01,01,02,ANTSTATUS=OPEN*2B
$GPRMC,070625.000,A,1529.6468,N,07356.7508,E,0.00,0.00,200722,,,D*66
$GPVTG,0.00,T,,M,0.00,N,0.00,K,D*38
$GPGGA,070625.000,1529.6468,N,07356.7508,E,2,9,0.87,55.9,M,-75.3,M,,*44
$GPGSA,A,3,05,29,23,18,25,13,15,24,12,,,,1.23,0.87,0.87*00
$GPGSV,4,1,16,40,61,232,40,29,58,356,34,15,57,127,45,25,44,221,37*7F
$GPGSV,4,2,16,23,38,244,33,05,33,027,34,13,33,082,42,18,28,316,36*7B
$GPGSV,4,3,16,12,25,177,28,02,15,070,21,10,12,231,,24,08,163,38*77
$GPGSV,4,4,16,11,04,073,,20,04,042,,26,02,313,24,193,,,*74
